{"corresp":[["1953","A_2084"],["1852","A_2053","1771"],["1758","A_1835"],["1964","1967","1801"],["1694","B_1672","54244"],["3798504","225437"],["3798478","50622"],["3798463","1869"],["3798449","2010"],["4009365","1850","A_1913"],["4009377","2019"],["4009379","1710"],["4009392","3813502","1997"],["4009396","1732","3813506"],["3813512","1731"],["3813518","1720"],["3813528","1718"],["3813530","1724"],["3813532","1719"],["3813536","51020"],["3813540","1723"],["3813542","1715"],["3813548","3813310","1733"],["3813340","1734"],["3813331","1735"],["3887738","1728"],["3813323","1737"],["3813345","1736"],["3813316","1721"],["3813312","1727"],["1902","B_1998"],["3813522","B_1976"],["1842","B_2077"]],"stations":{"1621":{"commune":"PARIS-18EME","lat":"48.8946326891969","lignes":{"metro":["4"]},"lng":"2.34709106533484","nom":"Simplon","num":"1621","type":"metro","isHub":false,"routes":[[16,1],[17,25]]},"1622":{"commune":"PARIS-07EME","lat":"48.8585512442859","lignes":{"metro":["12"]},"lng":"2.32268062216292","nom":"Solférino","num":"1622","type":"metro","isHub":false,"routes":[[34,15],[35,13]]},"1627":{"commune":"PARIS-19EME","lat":"48.88430478953","lignes":{"metro":["2","5","7"]},"lng":"2.3670850145355","nom":"Stalingrad","num":"1627","type":"metro","isHub":true,"routes":[[10,14],[11,10],[18,8],[19,13],[22,7],[23,7],[24,25],[25,26]]},"1628":{"commune":"PARIS-02EME","lat":"48.8691997057755","lignes":{"metro":["4","8","9"]},"lng":"2.35409710573389","nom":"Strasbourg-Saint-Denis","num":"1628","type":"metro","isHub":true,"routes":[[16,8],[17,18],[26,15],[27,22],[28,23],[29,13]]},"1630":{"commune":"PARIS-04EME","lat":"48.8510338403896","lignes":{"metro":["7"]},"lng":"2.36186696356924","nom":"Sully-Morland","num":"1630","type":"metro","isHub":false,"routes":[[22,21],[23,21],[24,11],[25,12]]},"1631":{"commune":"PARIS-15EME","lat":"48.8467524550776","lignes":{"metro":["10"]},"lng":"2.30782041849586","nom":"Ségur","num":"1631","type":"metro","isHub":false,"routes":[[30,9],[31,10]]},"1632":{"commune":"PARIS-07EME","lat":"48.8512043552606","lignes":{"metro":["10","12"]},"lng":"2.32587286292213","nom":"Sèvres-Babylone","num":"1632","type":"metro","isHub":true,"routes":[[30,12],[31,7],[34,17],[35,11]]},"1633":{"commune":"PARIS-15EME","lat":"48.8451307700065","lignes":{"metro":["6"]},"lng":"2.31018390371145","nom":"Sèvres-Lecourbe","num":"1633","type":"metro","isHub":false,"routes":[[20,9],[21,18]]},"1634":{"commune":"PARIS-03EME","lat":"48.8663687823143","lignes":{"metro":["3"]},"lng":"2.36108072227889","nom":"Temple","num":"1634","type":"metro","isHub":false,"routes":[[12,17],[13,7]]},"1635":{"commune":"PARIS-17EME","lat":"48.8780661989513","lignes":{"metro":["2"]},"lng":"2.29803071264819","nom":"Ternes","num":"1635","type":"metro","isHub":false,"routes":[[10,3],[11,21]]},"1636":{"commune":"PARIS-13EME","lat":"48.8265068988465","lignes":{"metro":["7"]},"lng":"2.35724192740466","nom":"Tolbiac","num":"1636","type":"metro","isHub":false,"routes":[[22,27],[23,27],[24,5],[25,6]]},"1638":{"commune":"PARIS-09EME","lat":"48.87650879316","lignes":{"metro":["12"]},"lng":"2.33305807671909","nom":"Trinité-d'Estienne d'Orves","num":"1638","type":"metro","isHub":false,"routes":[[34,10],[35,18]]},"1639":{"commune":"PARIS-16EME","lat":"48.8629708358403","lignes":{"metro":["6","9"]},"lng":"2.2870198439694","nom":"Trocadéro","num":"1639","type":"metro","isHub":true,"routes":[[20,3],[21,24],[28,11],[29,25]]},"1640":{"commune":"PARIS-01ER","lat":"48.8644970966975","lignes":{"metro":["1"]},"lng":"2.33031418026416","nom":"Tuileries","num":"1640","type":"metro","isHub":false,"routes":[[8,13],[9,11]]},"1643":{"commune":"PARIS-07EME","lat":"48.848871662506","lignes":{"metro":["10"]},"lng":"2.32193434751113","nom":"Vaneau","num":"1643","type":"metro","isHub":false,"routes":[[30,11],[31,8]]},"1644":{"commune":"PARIS-07EME","lat":"48.8575166012889","lignes":{"metro":["13"]},"lng":"2.31553023354222","nom":"Varenne","num":"1644","type":"metro","isHub":false,"routes":[[36,13],[37,15],[38,10],[39,10]]},"1645":{"commune":"PARIS-15EME","lat":"48.839568032804","lignes":{"metro":["12"]},"lng":"2.30098263992519","nom":"Vaugirard (Adolphe Chérioux)","num":"1645","type":"metro","isHub":false,"routes":[[34,24],[35,4]]},"1646":{"commune":"PARIS-06EME","lat":"48.8420036541946","lignes":{"metro":["4"]},"lng":"2.32900321886739","nom":"Vavin","num":"1646","type":"metro","isHub":false,"routes":[[16,20],[17,6]]},"1648":{"commune":"PARIS-16EME","lat":"48.8696716618644","lignes":{"metro":["2"]},"lng":"2.28526726839526","nom":"Victor Hugo","num":"1648","type":"metro","isHub":false,"routes":[[10,1],[11,23]]},"1649":{"commune":"VILLEJUIF","lat":"48.7870020157205","lignes":{"metro":["7"]},"lng":"2.36697471484243","nom":"Villejuif-Louis Aragon","num":"1649","type":"metro","isHub":false,"routes":[[22,32],[24,0]]},"1650":{"commune":"VILLEJUIF","lat":"48.8041740664156","lignes":{"metro":["7"]},"lng":"2.36394352657996","nom":"Villejuif-Léo Lagrange","num":"1650","type":"metro","isHub":false,"routes":[[22,30],[24,2]]},"1651":{"commune":"VILLEJUIF","lat":"48.7959447270881","lignes":{"metro":["7"]},"lng":"2.3679661373898","nom":"Villejuif-P. Vaillant-Couturier (Htal Brousse)","num":"1651","type":"metro","isHub":false,"routes":[[22,31],[24,1]]},"1654":{"commune":"PARIS-17EME","lat":"48.8810543983372","lignes":{"metro":["2","3"]},"lng":"2.31527055095629","nom":"Villiers","num":"1654","type":"metro","isHub":true,"routes":[[10,6],[11,18],[12,7],[13,17]]},"1656":{"commune":"PARIS-15EME","lat":"48.8416970273909","lignes":{"metro":["12"]},"lng":"2.30804114557479","nom":"Volontaires","num":"1656","type":"metro","isHub":false,"routes":[[34,23],[35,5]]},"1657":{"commune":"PARIS-11EME","lat":"48.8578758428685","lignes":{"metro":["9"]},"lng":"2.37988391957515","nom":"Voltaire (Léon Blum)","num":"1657","type":"metro","isHub":false,"routes":[[28,27],[29,9]]},"1658":{"commune":"PARIS-17EME","lat":"48.8838739610152","lignes":{"metro":["3"]},"lng":"2.30465144209881","nom":"Wagram","num":"1658","type":"metro","isHub":false,"routes":[[12,5],[13,19]]},"1659":{"commune":"PARIS-16EME","lat":"48.8553920307943","lignes":{"metro":["9"]},"lng":"2.26997975035107","nom":"Ranelagh","num":"1659","type":"metro","isHub":false,"routes":[[28,8],[29,28]]},"1660":{"commune":"PARIS-14EME","lat":"48.8389637143162","lignes":{"metro":["4","6"]},"lng":"2.33058309684112","nom":"Raspail","num":"1660","type":"metro","isHub":true,"routes":[[16,21],[17,5],[20,13],[21,14]]},"1661":{"commune":"PARIS-06EME","lat":"48.8480544328681","lignes":{"metro":["12"]},"lng":"2.32808305123987","nom":"Rennes","num":"1661","type":"metro","isHub":false,"routes":[[34,18],[35,10]]},"1662":{"commune":"PARIS-12EME","lat":"48.8472381327386","lignes":{"metro":["1","8"]},"lng":"2.38611818658013","nom":"Reuilly-Diderot","num":"1662","type":"metro","isHub":true,"routes":[[8,5],[9,19],[26,23],[27,14]]},"1664":{"commune":"PARIS-11EME","lat":"48.8608927535125","lignes":{"metro":["5"]},"lng":"2.3720977804711","nom":"Richard-Lenoir","num":"1664","type":"metro","isHub":false,"routes":[[18,14],[19,7]]},"1665":{"commune":"PARIS-09EME","lat":"48.8720139167525","lignes":{"metro":["8","9"]},"lng":"2.33908809938486","nom":"Richelieu-Drouot","num":"1665","type":"metro","isHub":true,"routes":[[26,12],[27,25],[28,20],[29,16]]},"1666":{"commune":"PARIS-19EME","lat":"48.8881235581407","lignes":{"metro":["7"]},"lng":"2.37448742568144","nom":"Riquet","num":"1666","type":"metro","isHub":false,"routes":[[22,6],[23,6],[24,26],[25,27]]},"1667":{"commune":"MONTREUIL","lat":"48.85556400483","lignes":{"metro":["9"]},"lng":"2.42355673885079","nom":"Robespierre","num":"1667","type":"metro","isHub":false,"routes":[[28,34],[29,2]]},"1670":{"commune":"PARIS-17EME","lat":"48.8825292240735","lignes":{"metro":["2"]},"lng":"2.32098414419979","nom":"Rome","num":"1670","type":"metro","isHub":false,"routes":[[10,7],[11,17]]},"1671":{"commune":"PARIS-09EME","lat":"48.8714189081641","lignes":{"metro":["8","9"]},"lng":"2.34319701067138","nom":"Grands Boulevards","num":"1671","type":"metro","isHub":false,"routes":[[26,13],[27,24],[28,21],[29,15]]},"1672":{"commune":"PARIS-16EME","lat":"48.8641004131629","lignes":{"metro":["9"]},"lng":"2.27762632988678","nom":"Rue de la Pompe (Av. Georges Mandel)","num":"1672","type":"metro","isHub":false,"routes":[[28,10],[29,26]]},"1673":{"commune":"PARIS-11EME","lat":"48.8521417733756","lignes":{"metro":["9"]},"lng":"2.38914280457034","nom":"Rue des Boulets","num":"1673","type":"metro","isHub":false,"routes":[[28,29],[29,7]]},"1674":{"commune":"PARIS-07EME","lat":"48.8557564721823","lignes":{"metro":["12"]},"lng":"2.32556882179391","nom":"Rue du Bac","num":"1674","type":"metro","isHub":false,"routes":[[34,16],[35,12]]},"1676":{"commune":"PARIS-02EME","lat":"48.8663118301881","lignes":{"metro":["3","4"]},"lng":"2.35203525525425","nom":"Réaumur-Sébastopol","num":"1676","type":"metro","isHub":true,"routes":[[12,15],[13,9],[16,9],[17,17]]},"1679":{"commune":"PARIS-11EME","lat":"48.8674860390566","lignes":{"metro":["11","3","5","8","9"]},"lng":"2.36366959820676","nom":"République","num":"1679","type":"metro","isHub":true,"routes":[[12,18],[13,6],[18,12],[19,9],[26,16],[27,21],[28,24],[29,12],[32,8],[33,4]]},"1680":{"commune":"PARIS-11EME","lat":"48.8612121032505","lignes":{"metro":["9"]},"lng":"2.37409760383489","nom":"Saint-Ambroise","num":"1680","type":"metro","isHub":false,"routes":[[28,26],[29,10]]},"1681":{"commune":"PARIS-08EME","lat":"48.8746742716311","lignes":{"metro":["9"]},"lng":"2.32043139650991","nom":"Saint-Augustin","num":"1681","type":"metro","isHub":false,"routes":[[28,17],[29,19]]},"1684":{"commune":"PARIS-20EME","lat":"48.871951099492","lignes":{"metro":["3B"]},"lng":"2.40485763553065","nom":"Saint-Fargeau","num":"1684","type":"metro","isHub":false,"routes":[[14,1],[15,2]]},"1685":{"commune":"PARIS-07EME","lat":"48.8518632147979","lignes":{"metro":["13"]},"lng":"2.31403452688812","nom":"Saint-Francois-Xavier","num":"1685","type":"metro","isHub":false,"routes":[[36,14],[37,16],[38,9],[39,9]]},"1686":{"commune":"PARIS-09EME","lat":"48.8785085363002","lignes":{"metro":["12"]},"lng":"2.33758851215148","nom":"Saint-Georges","num":"1686","type":"metro","isHub":false,"routes":[[34,8],[35,20]]},"1687":{"commune":"PARIS-06EME","lat":"48.8536134867907","lignes":{"metro":["4"]},"lng":"2.33372046538119","nom":"Saint-Germain des Prés","num":"1687","type":"metro","isHub":false,"routes":[[16,16],[17,10]]},"1688":{"commune":"PARIS-14EME","lat":"48.8332522883745","lignes":{"metro":["6"]},"lng":"2.33622001540028","nom":"Saint-Jacques","num":"1688","type":"metro","isHub":false,"routes":[[20,15],[21,12]]},"1689":{"commune":"PARIS-08EME","lat":"48.8755778691635","lignes":{"metro":["12","13","14","3"]},"lng":"2.326185658552","nom":"Saint-Lazare","num":"1689","type":"metro","isHub":true,"routes":[[12,9],[13,15],[34,11],[35,17],[36,9],[37,11],[38,14],[39,14],[40,8],[41,0]]},"1690":{"commune":"SAINT-MANDE","lat":"48.8462977572576","lignes":{"metro":["1"]},"lng":"2.41867310093048","nom":"Saint-Mandé","num":"1690","type":"metro","isHub":false,"routes":[[8,2],[9,22]]},"1691":{"commune":"PARIS-13EME","lat":"48.8395141857768","lignes":{"metro":["5"]},"lng":"2.36140877914038","nom":"Saint-Marcel","num":"1691","type":"metro","isHub":false,"routes":[[18,19],[19,2]]},"1693":{"commune":"PARIS-11EME","lat":"48.8639878082439","lignes":{"metro":["3"]},"lng":"2.38007329534159","nom":"Rue Saint-Maur","num":"1693","type":"metro","isHub":false,"routes":[[12,20],[13,4]]},"1694":{"commune":"PARIS-05EME","lat":"48.8532875817267","lignes":{"metro":["4"]},"lng":"2.34346845196892","nom":"Saint-Michel","num":"1694","type":"metro","isHub":true,"routes":[[16,14],[17,12],[72,0],[73,2]]},"1695":{"commune":"PARIS-04EME","lat":"48.8551436006388","lignes":{"metro":["1"]},"lng":"2.36065335403361","nom":"Saint-Paul (Le Marais)","num":"1695","type":"metro","isHub":false,"routes":[[8,8],[9,16]]},"1696":{"commune":"PARIS-08EME","lat":"48.8721798206485","lignes":{"metro":["9"]},"lng":"2.30982009380661","nom":"Saint-Philippe du Roule","num":"1696","type":"metro","isHub":false,"routes":[[28,15],[29,21]]},"1697":{"commune":"PARIS-06EME","lat":"48.8465803886283","lignes":{"metro":["4"]},"lng":"2.32693263560201","nom":"Saint-Placide","num":"1697","type":"metro","isHub":false,"routes":[[16,18],[17,8]]},"1698":{"commune":"PARIS-06EME","lat":"48.8508047851976","lignes":{"metro":["4"]},"lng":"2.33086756439724","nom":"Saint-Sulpice","num":"1698","type":"metro","isHub":false,"routes":[[16,17],[17,9]]},"1699":{"commune":"PARIS-03EME","lat":"48.8612805878047","lignes":{"metro":["8"]},"lng":"2.36702409525746","nom":"Saint-Sébastien-Froissart","num":"1699","type":"metro","isHub":false,"routes":[[26,18],[27,19]]},"1702":{"commune":"PARIS-02EME","lat":"48.8674133308826","lignes":{"metro":["3"]},"lng":"2.3466136387446","nom":"Sentier","num":"1702","type":"metro","isHub":false,"routes":[[12,14],[13,10]]},"1705":{"commune":"PARIS-14EME","lat":"48.8317625860832","lignes":{"metro":["13"]},"lng":"2.31406734480211","nom":"Plaisance","num":"1705","type":"metro","isHub":false,"routes":[[36,19],[37,21],[38,4],[39,4]]},"1706":{"commune":"PARIS-10EME","lat":"48.8773395505122","lignes":{"metro":["7"]},"lng":"2.34960623902438","nom":"Poissonnière","num":"1706","type":"metro","isHub":false,"routes":[[22,11],[23,11],[24,21],[25,22]]},"1708":{"commune":"LEVALLOIS-PERRET","lat":"48.8971187551468","lignes":{"metro":["3"]},"lng":"2.28048941733931","nom":"Pont de Levallois-Bécon","num":"1708","type":"metro","isHub":false,"routes":[[12,0],[13,24]]},"1709":{"commune":"NEUILLY-SUR-SEINE","lat":"48.8845093796136","lignes":{"metro":["1"]},"lng":"2.25989172465632","nom":"Pont de Neuilly","num":"1709","type":"metro","isHub":false,"routes":[[8,22],[9,2]]},"1710":{"commune":"BOULOGNE-BILLANCOURT","lat":"48.8295929841028","lignes":{"metro":["9"]},"lng":"2.23025364790437","nom":"Pont de Sèvres","num":"1710","type":"metro","isHub":true,"routes":[[28,0],[29,36],[86,1],[87,0]]},"1711":{"commune":"PARIS-04EME","lat":"48.8533107454827","lignes":{"metro":["7"]},"lng":"2.35745881597611","nom":"Pont Marie (Cité des Arts)","num":"1711","type":"metro","isHub":false,"routes":[[22,20],[23,20],[24,12],[25,13]]},"1712":{"commune":"PARIS-01ER","lat":"48.8584022524727","lignes":{"metro":["7"]},"lng":"2.34194923634659","nom":"Pont Neuf","num":"1712","type":"metro","isHub":false,"routes":[[22,18],[23,18],[24,14],[25,15]]},"1714":{"commune":"PARIS-16EME","lat":"48.8716448024995","lignes":{"metro":["2"]},"lng":"2.2766480745793","nom":"Porte Dauphine (Mal de Lattre)","num":"1714","type":"metro","isHub":false,"routes":[[10,0],[11,24]]},"1715":{"commune":"PARIS-12EME","lat":"48.8354388891914","lignes":{"metro":["8"]},"lng":"2.40601835314784","nom":"Porte Dorée","num":"1715","type":"metro","isHub":true,"routes":[[26,27],[27,10],[106,1],[107,0]],"isAmbiguous":true},"1716":{"commune":"PARIS-17EME","lat":"48.877964502968","lignes":{"metro":["1"]},"lng":"2.28183617255428","nom":"Porte Maillot","num":"1716","type":"metro","isHub":false,"routes":[[8,20],[9,4]]},"1717":{"commune":"PARIS-16EME","lat":"48.8480737822692","lignes":{"metro":["10"]},"lng":"2.25864782764785","nom":"Porte d'Auteuil","num":"1717","type":"metro","isHub":false,"routes":[[31,17]]},"1718":{"commune":"PARIS-13EME","lat":"48.8189346110715","lignes":{"metro":["7"]},"lng":"2.35985580265649","nom":"Porte d'Italie","num":"1718","type":"metro","isHub":true,"routes":[[23,29],[25,4],[96,1],[97,0]],"isAmbiguous":true},"1719":{"commune":"PARIS-13EME","lat":"48.8212704974684","lignes":{"metro":["7"]},"lng":"2.36909494347048","nom":"Porte d'Ivry","num":"1719","type":"metro","isHub":true,"routes":[[23,31],[25,2],[100,1],[101,0]],"isAmbiguous":true},"1720":{"commune":"PARIS-14EME","lat":"48.8226012875276","lignes":{"metro":["4"]},"lng":"2.3248055530705","nom":"Porte d'Orléans (Général Leclerc)","num":"1720","type":"metro","isHub":true,"routes":[[16,25],[17,1],[94,1],[95,0]]},"1721":{"commune":"PARIS-20EME","lat":"48.8643963044636","lignes":{"metro":["3"]},"lng":"2.40799995272687","nom":"Porte de Bagnolet","num":"1721","type":"metro","isHub":true,"routes":[[12,23],[13,1],[120,1],[121,0]],"isAmbiguous":true},"1722":{"commune":"PARIS-17EME","lat":"48.8855507197363","lignes":{"metro":["3"]},"lng":"2.29274204135011","nom":"Porte de Champerret","num":"1722","type":"metro","isHub":false,"routes":[[12,3],[13,21]]},"1723":{"commune":"PARIS-12EME","lat":"48.8325258939597","lignes":{"metro":["8"]},"lng":"2.39970109937032","nom":"Porte de Charenton","num":"1723","type":"metro","isHub":true,"routes":[[26,28],[27,9],[104,1],[105,0]],"isAmbiguous":true},"1724":{"commune":"PARIS-13EME","lat":"48.8201452157747","lignes":{"metro":["7"]},"lng":"2.36434644526859","nom":"Porte de Choisy","num":"1724","type":"metro","isHub":true,"routes":[[23,30],[25,3],[98,1],[99,0]],"isAmbiguous":true},"1725":{"commune":"PARIS-17EME","lat":"48.8943611610735","lignes":{"metro":["13"]},"lng":"2.31373834378485","nom":"Porte de Clichy","num":"1725","type":"metro","isHub":false,"routes":[[36,4],[38,19]]},"1726":{"commune":"PARIS-18EME","lat":"48.8972870603971","lignes":{"metro":["4"]},"lng":"2.34477887737988","nom":"Porte de Clignancourt","num":"1726","type":"metro","isHub":false,"routes":[[16,0],[17,26]]},"1727":{"commune":"PARIS-20EME","lat":"48.8534495044418","lignes":{"metro":["9"]},"lng":"2.41043444867178","nom":"Porte de Montreuil","num":"1727","type":"metro","isHub":true,"routes":[[28,33],[29,3],[122,1],[123,0]],"isAmbiguous":true},"1728":{"commune":"PARIS-19EME","lat":"48.8883327364608","lignes":{"metro":["5"]},"lng":"2.39146861403051","nom":"Porte de Pantin","num":"1728","type":"metro","isHub":true,"routes":[[18,4],[19,17],[114,1],[115,0]]},"1729":{"commune":"PARIS-16EME","lat":"48.8378883866228","lignes":{"metro":["9"]},"lng":"2.25680251499702","nom":"Porte de Saint-Cloud","num":"1729","type":"metro","isHub":false,"routes":[[28,3],[29,33]]},"1730":{"commune":"PARIS-18EME","lat":"48.8972510523147","lignes":{"metro":["13"]},"lng":"2.32883766969025","nom":"Porte de Saint-Ouen","num":"1730","type":"metro","isHub":false,"routes":[[37,6],[39,19]]},"1731":{"commune":"PARIS-14EME","lat":"48.8276756893336","lignes":{"metro":["13"]},"lng":"2.30534014881766","nom":"Porte de Vanves","num":"1731","type":"metro","isHub":true,"routes":[[36,20],[37,22],[38,3],[39,3],[92,1],[93,0]],"isAmbiguous":true},"1732":{"commune":"PARIS-15EME","lat":"48.8324619819728","lignes":{"metro":["12"]},"lng":"2.28800279639373","nom":"Porte de Versailles","num":"1732","type":"metro","isHub":true,"routes":[[34,26],[35,2],[90,1],[91,1]],"isAmbiguous":true},"1733":{"commune":"PARIS-20EME","lat":"48.8472657113718","lignes":{"metro":["1"]},"lng":"2.40888352534985","nom":"Porte de Vincennes","num":"1733","type":"metro","isHub":true,"routes":[[8,3],[9,21],[108,2],[109,0]],"isAmbiguous":true},"1734":{"commune":"PARIS-18EME","lat":"48.8980716716703","lignes":{"metro":["12"]},"lng":"2.35909154194382","nom":"Porte de la Chapelle","num":"1734","type":"metro","isHub":true,"routes":[[34,1],[35,27],[110,1],[111,0]],"isAmbiguous":true},"1735":{"commune":"PARIS-19EME","lat":"48.8978102190581","lignes":{"metro":["7"]},"lng":"2.38580611263705","nom":"Porte de la Villette","num":"1735","type":"metro","isHub":true,"routes":[[22,3],[23,3],[24,29],[25,30],[112,1],[113,0]]},"1736":{"commune":"PARIS-20EME","lat":"48.8770699912197","lignes":{"metro":["11","3B"]},"lng":"2.40638582344912","nom":"Porte des Lilas","num":"1736","type":"metro","isHub":true,"routes":[[14,0],[15,3],[32,1],[33,11],[118,1],[119,0]],"isAmbiguous":true},"1737":{"commune":"PARIS-19EME","lat":"48.8799349564117","lignes":{"metro":["7B"]},"lng":"2.39907689689178","nom":"Pré-Saint-Gervais","num":"1737","type":"metro","isHub":true,"routes":[[42,6],[43,0],[116,1],[117,0]]},"1738":{"commune":"PARIS-01ER","lat":"48.8669463020695","lignes":{"metro":["7"]},"lng":"2.33366506577888","nom":"Pyramides","num":"1738","type":"metro","isHub":false,"routes":[[22,16],[23,16],[24,16],[25,17]],"isAmbiguous":true},"1740":{"commune":"PARIS-17EME","lat":"48.8845503317922","lignes":{"metro":["3"]},"lng":"2.29751704870328","nom":"Péreire","num":"1740","type":"metro","isHub":false,"routes":[[12,4],[13,20]]},"1741":{"commune":"PARIS-11EME","lat":"48.8626131584417","lignes":{"metro":["2","3"]},"lng":"2.38672181193918","nom":"Père-Lachaise","num":"1741","type":"metro","isHub":true,"routes":[[10,20],[11,4],[12,21],[13,3]]},"1742":{"commune":"PARIS-13EME","lat":"48.8373989542089","lignes":{"metro":["6"]},"lng":"2.37378388489769","nom":"Quai de la Gare","num":"1742","type":"metro","isHub":false,"routes":[[20,21],[21,6]]},"1743":{"commune":"PARIS-12EME","lat":"48.8457951983436","lignes":{"metro":["5"]},"lng":"2.36703563413483","nom":"Quai de la Rapée","num":"1743","type":"metro","isHub":false,"routes":[[18,17],[19,4]]},"1744":{"commune":"PARIS-02EME","lat":"48.8693729306069","lignes":{"metro":["3"]},"lng":"2.33574247484458","nom":"Quatre Septembre","num":"1744","type":"metro","isHub":false,"routes":[[12,12],[13,12]]},"1745":{"commune":"PARIS-04EME","lat":"48.8614000355035","lignes":{"metro":["11"]},"lng":"2.35350496222254","nom":"Rambuteau","num":"1745","type":"metro","isHub":false,"routes":[[32,10],[33,2]]},"1746":{"commune":"PARIS-16EME","lat":"48.8473396417237","lignes":{"metro":["10"]},"lng":"2.27340595925819","nom":"Mirabeau","num":"1746","type":"metro","isHub":false,"routes":[[30,4]]},"1747":{"commune":"PARIS-08EME","lat":"48.8737063841262","lignes":{"metro":["13","9"]},"lng":"2.31519918493339","nom":"Miromesnil","num":"1747","type":"metro","isHub":true,"routes":[[28,16],[29,20],[36,10],[37,12],[38,13],[39,13]]},"1749":{"commune":"PARIS-08EME","lat":"48.8806306676395","lignes":{"metro":["2"]},"lng":"2.30896624223491","nom":"Monceau","num":"1749","type":"metro","isHub":false,"routes":[[10,5],[11,19]]},"1750":{"commune":"PARIS-12EME","lat":"48.8442504626131","lignes":{"metro":["8"]},"lng":"2.38980213751236","nom":"Montgallet","num":"1750","type":"metro","isHub":false,"routes":[[26,24],[27,13]]},"1751":{"commune":"PARIS-14EME","lat":"48.8430428502558","lignes":{"metro":["12","13","4","6"]},"lng":"2.32263505064878","nom":"Montparnasse-Bienvenue","num":"1751","type":"metro","isHub":true,"routes":[[16,19],[17,7],[20,11],[21,16],[34,20],[35,8],[36,16],[37,18],[38,7],[39,7]]},"1753":{"commune":"PARIS-14EME","lat":"48.8313196995984","lignes":{"metro":["4"]},"lng":"2.32942693483694","nom":"Mouton-Duvernet","num":"1753","type":"metro","isHub":false,"routes":[[16,23],[17,3]]},"1754":{"commune":"PARIS-11EME","lat":"48.8659488111593","lignes":{"metro":["2"]},"lng":"2.38339427851543","nom":"Ménilmontant","num":"1754","type":"metro","isHub":false,"routes":[[10,19],[11,5]]},"1758":{"commune":"PARIS-12EME","lat":"48.8484657505532","lignes":{"metro":["1","2","6","9"],"rer":["A"]},"lng":"2.39590574456544","nom":"Nation","num":"1758","type":"metro","isHub":true,"routes":[[8,4],[9,20],[10,24],[11,0],[20,27],[21,0],[28,30],[29,6],[68,0],[69,1]],"isAmbiguous":true},"1761":{"commune":"PARIS-13EME","lat":"48.8327104551183","lignes":{"metro":["6"]},"lng":"2.36204546183122","nom":"Nationale","num":"1761","type":"metro","isHub":false,"routes":[[20,19],[21,8]]},"1767":{"commune":"PARIS-09EME","lat":"48.8766256956919","lignes":{"metro":["12"]},"lng":"2.33845371043763","nom":"Notre-Dame de Lorette","num":"1767","type":"metro","isHub":false,"routes":[[34,9],[35,19]]},"1768":{"commune":"PARIS-06EME","lat":"48.8449178498434","lignes":{"metro":["12"]},"lng":"2.32885296806704","nom":"Notre-Dame des Champs","num":"1768","type":"metro","isHub":false,"routes":[[34,19],[35,9]]},"1769":{"commune":"PARIS-11EME","lat":"48.8645156235565","lignes":{"metro":["5","9"]},"lng":"2.36867423637139","nom":"Oberkampf","num":"1769","type":"metro","isHub":true,"routes":[[18,13],[19,8],[28,25],[29,11]]},"1770":{"commune":"PARIS-06EME","lat":"48.8522489363668","lignes":{"metro":["10","4"]},"lng":"2.33855755868422","nom":"Odéon","num":"1770","type":"metro","isHub":true,"routes":[[16,15],[17,11],[30,14],[31,5]]},"1771":{"commune":"PARIS-09EME","lat":"48.8707029411588","lignes":{"metro":["3","7","8"]},"lng":"2.33180515640395","nom":"Opéra","num":"1771","type":"metro","isHub":true,"routes":[[12,11],[13,13],[22,15],[23,15],[24,17],[25,18],[26,11],[27,26],[66,2],[67,0]]},"1773":{"commune":"PARIS-19EME","lat":"48.8869750227319","lignes":{"metro":["5"]},"lng":"2.38602958795485","nom":"Ourcq","num":"1773","type":"metro","isHub":false,"routes":[[18,5],[19,16]]},"1774":{"commune":"PARIS-01ER","lat":"48.8628468213553","lignes":{"metro":["1","7"]},"lng":"2.33581661194832","nom":"Palais-Royal (Musée du Louvre)","num":"1774","type":"metro","isHub":true,"routes":[[8,12],[9,12],[22,17],[23,17],[24,15],[25,16]]},"1779":{"commune":"PARIS-11EME","lat":"48.8651606067898","lignes":{"metro":["3"]},"lng":"2.37584679468414","nom":"Parmentier","num":"1779","type":"metro","isHub":false,"routes":[[12,19],[13,5]]},"1780":{"commune":"PARIS-16EME","lat":"48.8576333212361","lignes":{"metro":["6"]},"lng":"2.28586501138629","nom":"Passy","num":"1780","type":"metro","isHub":false,"routes":[[20,4],[21,23]]},"1781":{"commune":"PARIS-15EME","lat":"48.8429383503106","lignes":{"metro":["12","6"]},"lng":"2.31265644504969","nom":"Pasteur","num":"1781","type":"metro","isHub":true,"routes":[[20,10],[21,17],[34,22],[35,6]]},"1782":{"commune":"PARIS-20EME","lat":"48.868519874537","lignes":{"metro":["3B"]},"lng":"2.40135199013901","nom":"Pelleport","num":"1782","type":"metro","isHub":false,"routes":[[14,2],[15,1]]},"1783":{"commune":"PARIS-14EME","lat":"48.8338169001883","lignes":{"metro":["13"]},"lng":"2.31766395823272","nom":"Pernéty","num":"1783","type":"metro","isHub":false,"routes":[[36,18],[37,20],[38,5],[39,5]]},"1784":{"commune":"PARIS-11EME","lat":"48.8583654720925","lignes":{"metro":["2"]},"lng":"2.38938739145325","nom":"Philippe Auguste","num":"1784","type":"metro","isHub":false,"routes":[[10,21],[11,3]]},"1785":{"commune":"PARIS-12EME","lat":"48.8452604478542","lignes":{"metro":["6"]},"lng":"2.40125516453104","nom":"Picpus","num":"1785","type":"metro","isHub":false,"routes":[[20,26],[21,1]]},"1786":{"commune":"IVRY-SUR-SEINE","lat":"48.8156836605119","lignes":{"metro":["7"]},"lng":"2.3772866229916","nom":"Pierre et Marie Curie","num":"1786","type":"metro","isHub":false,"routes":[[23,32],[25,1]]},"1787":{"commune":"PARIS-18EME","lat":"48.8824943850352","lignes":{"metro":["12","2"]},"lng":"2.3376226051814","nom":"Pigalle","num":"1787","type":"metro","isHub":true,"routes":[[10,10],[11,14],[34,7],[35,21]]},"1788":{"commune":"PARIS-05EME","lat":"48.8431960998294","lignes":{"metro":["7"]},"lng":"2.35217845099659","nom":"Place Monge (Jardin des Plantes)","num":"1788","type":"metro","isHub":false,"routes":[[22,23],[23,23],[24,9],[25,10]]},"1789":{"commune":"PARIS-13EME","lat":"48.8314061535553","lignes":{"metro":["5","6","7"]},"lng":"2.35572137338498","nom":"Place d'Italie","num":"1789","type":"metro","isHub":true,"routes":[[18,21],[19,0],[20,18],[21,9],[22,26],[23,26],[24,6],[25,7]]},"1790":{"commune":"PARIS-09EME","lat":"48.8836233671973","lignes":{"metro":["13","2"]},"lng":"2.32730682210246","nom":"Place de Clichy","num":"1790","type":"metro","isHub":true,"routes":[[10,8],[11,16],[36,7],[37,9],[38,16],[39,16]]},"1792":{"commune":"PARIS-19EME","lat":"48.8768191471423","lignes":{"metro":["11","7B"]},"lng":"2.39347313514395","nom":"Place des Fêtes","num":"1792","type":"metro","isHub":true,"routes":[[32,3],[33,9],[42,5]]},"1793":{"commune":"LE KREMLIN-BICETRE","lat":"48.8103806352167","lignes":{"metro":["7"]},"lng":"2.36161295005801","nom":"Le Kremlin-Bicêtre","num":"1793","type":"metro","isHub":false,"routes":[[22,29],[24,3]]},"1795":{"commune":"PARIS-09EME","lat":"48.8749360634737","lignes":{"metro":["7"]},"lng":"2.33980253815072","nom":"Le Peletier","num":"1795","type":"metro","isHub":false,"routes":[[22,13],[23,13],[24,19],[25,20]]},"1798":{"commune":"PARIS-12EME","lat":"48.8511941201646","lignes":{"metro":["8"]},"lng":"2.37594535235887","nom":"Ledru-Rollin","num":"1798","type":"metro","isHub":false,"routes":[[26,21],[27,16]]},"1800":{"commune":"PARIS-13EME","lat":"48.8366105352574","lignes":{"metro":["7"]},"lng":"2.35164217355525","nom":"Les Gobelins","num":"1800","type":"metro","isHub":false,"routes":[[22,25],[23,25],[24,7],[25,8]]},"1801":{"commune":"PARIS-01ER","lat":"48.862194721152","lignes":{"metro":["4"]},"lng":"2.34583626729201","nom":"Les Halles","num":"1801","type":"metro","isHub":true,"routes":[[16,11],[17,15],[70,2],[71,0]]},"1802":{"commune":"NEUILLY-SUR-SEINE","lat":"48.880901799077","lignes":{"metro":["1"]},"lng":"2.27253908542214","nom":"Les Sablons (Jardin d'acclimatation)","num":"1802","type":"metro","isHub":false,"routes":[[8,21],[9,3]]},"1803":{"commune":"CHARENTON-LE-PONT","lat":"48.8258380800419","lignes":{"metro":["8"]},"lng":"2.40692557755493","nom":"Liberté","num":"1803","type":"metro","isHub":false,"routes":[[26,29],[27,8]]},"1804":{"commune":"PARIS-08EME","lat":"48.8795640572124","lignes":{"metro":["13"]},"lng":"2.32651728518985","nom":"Liège","num":"1804","type":"metro","isHub":false,"routes":[[36,8],[37,10],[38,15],[39,15]]},"1806":{"commune":"PARIS-10EME","lat":"48.8810261029957","lignes":{"metro":["7B","7"]},"lng":"2.3655569576092","nom":"Louis Blanc","num":"1806","type":"metro","isHub":true,"routes":[[22,8],[23,8],[24,24],[25,25],[42,0],[43,6]]},"1807":{"commune":"LEVALLOIS-PERRET","lat":"48.8888292427619","lignes":{"metro":["3"]},"lng":"2.28813731087893","nom":"Louise Michel","num":"1807","type":"metro","isHub":false,"routes":[[12,2],[13,22]]},"1808":{"commune":"PARIS-15EME","lat":"48.8384881095778","lignes":{"metro":["8"]},"lng":"2.28175852328733","nom":"Lourmel","num":"1808","type":"metro","isHub":false,"routes":[[26,1],[27,36]]},"1809":{"commune":"PARIS-01ER","lat":"48.8605382946574","lignes":{"metro":["1"]},"lng":"2.34100049025543","nom":"Louvre-Rivoli","num":"1809","type":"metro","isHub":false,"routes":[[8,11],[9,13]]},"1812":{"commune":"PARIS-06EME","lat":"48.8528181349058","lignes":{"metro":["10"]},"lng":"2.33540928887416","nom":"Mabillon","num":"1812","type":"metro","isHub":false,"routes":[[30,13],[31,6]]},"1813":{"commune":"PARIS-08EME","lat":"48.8700643517776","lignes":{"metro":["12","14","8"]},"lng":"2.32516370025939","nom":"Madeleine","num":"1813","type":"metro","isHub":true,"routes":[[26,10],[27,27],[34,12],[35,16],[40,7],[41,1]]},"1814":{"commune":"ISSY-LES-MOULINEAUX","lat":"48.8248138108686","lignes":{"metro":["12"]},"lng":"2.27350399984748","nom":"Mairie d'Issy","num":"1814","type":"metro","isHub":false,"routes":[[34,28],[35,0]]},"1815":{"commune":"IVRY-SUR-SEINE","lat":"48.8111784269088","lignes":{"metro":["7"]},"lng":"2.3838082733405","nom":"Mairie d'Ivry","num":"1815","type":"metro","isHub":false,"routes":[[23,33],[25,0]]},"1816":{"commune":"CLICHY","lat":"48.9036594416322","lignes":{"metro":["13"]},"lng":"2.30556600125528","nom":"Mairie de Clichy","num":"1816","type":"metro","isHub":false,"routes":[[36,3],[38,20]]},"1817":{"commune":"MONTREUIL","lat":"48.8623601850863","lignes":{"metro":["9"]},"lng":"2.44165620310216","nom":"Mairie de Montreuil","num":"1817","type":"metro","isHub":false,"routes":[[28,36],[29,0]]},"1818":{"commune":"SAINT-OUEN","lat":"48.9120620157054","lignes":{"metro":["13"]},"lng":"2.334163015407","nom":"Mairie de Saint-Ouen","num":"1818","type":"metro","isHub":false,"routes":[[37,4],[39,21]]},"1819":{"commune":"LES LILAS","lat":"48.8797989953663","lignes":{"metro":["11"]},"lng":"2.41623893515656","nom":"Mairie des Lilas","num":"1819","type":"metro","isHub":false,"routes":[[32,0],[33,12]]},"1820":{"commune":"PARIS-13EME","lat":"48.8226203194274","lignes":{"metro":["7"]},"lng":"2.35818867672494","nom":"Maison Blanche","num":"1820","type":"metro","isHub":false,"routes":[[22,28],[23,28],[24,4],[25,5]]},"1826":{"commune":"PARIS-17EME","lat":"48.8828147397743","lignes":{"metro":["3"]},"lng":"2.30969409432085","nom":"Malesherbes","num":"1826","type":"metro","isHub":false,"routes":[[12,6],[13,18]]},"1828":{"commune":"PARIS-18EME","lat":"48.8908769929214","lignes":{"metro":["12","4"]},"lng":"2.34983707163005","nom":"Marcadet-Poissonniers","num":"1828","type":"metro","isHub":true,"routes":[[16,2],[17,24],[34,3],[35,25]]},"1829":{"commune":"BOULOGNE-BILLANCOURT","lat":"48.8339143013551","lignes":{"metro":["9"]},"lng":"2.24408138825371","nom":"Marcel Sembat","num":"1829","type":"metro","isHub":false,"routes":[[28,2],[29,34]]},"1831":{"commune":"PARIS-18EME","lat":"48.8903020649568","lignes":{"metro":["12"]},"lng":"2.36020584275635","nom":"Marx-Dormoy","num":"1831","type":"metro","isHub":false,"routes":[[34,2],[35,26]]},"1834":{"commune":"PARIS-05EME","lat":"48.8499086726722","lignes":{"metro":["10"]},"lng":"2.34850342965795","nom":"Maubert-Mutualité","num":"1834","type":"metro","isHub":false,"routes":[[30,16],[31,3]]},"1835":{"commune":"PARIS-12EME","lat":"48.8367033669766","lignes":{"metro":["8"]},"lng":"2.40296916119538","nom":"Michel Bizot","num":"1835","type":"metro","isHub":false,"routes":[[26,26],[27,11]]},"1836":{"commune":"PARIS-16EME","lat":"48.8477403459598","lignes":{"metro":["10","9"]},"lng":"2.2642974417474","nom":"Michel-Ange-Auteuil","num":"1836","type":"metro","isHub":true,"routes":[[28,6],[29,30],[31,16]]},"1837":{"commune":"PARIS-16EME","lat":"48.844867436543","lignes":{"metro":["10","9"]},"lng":"2.26204786419272","nom":"Michel-Ange-Molitor","num":"1837","type":"metro","isHub":true,"routes":[[28,5],[29,31],[30,2]]},"1838":{"commune":"PARIS-13EME","lat":"48.8431055835176","lignes":{"metro":["10","5"]},"lng":"2.36431304821499","nom":"Gare d'Austerlitz","num":"1838","type":"metro","isHub":true,"routes":[[18,18],[19,3],[30,19],[31,0]]},"1839":{"commune":"PARIS-12EME","lat":"48.8447045450658","lignes":{"metro":["14","1"],"rer":["A"]},"lng":"2.37406590751466","nom":"Gare de Lyon","num":"1839","type":"metro","isHub":true,"routes":[[8,6],[9,18],[40,4],[41,4],[48,14],[49,13]]},"1841":{"commune":"PARIS-10EME","lat":"48.8760613055252","lignes":{"metro":["4","5","7"]},"lng":"2.35791867724751","nom":"Gare de l'Est (Verdun)","num":"1841","type":"metro","isHub":true,"routes":[[16,6],[17,20],[18,10],[19,11],[22,10],[23,10],[24,22],[25,23]]},"1842":{"commune":"PARIS-10EME","lat":"48.8799654432891","lignes":{"metro":["4","5"]},"lng":"2.35470307836603","nom":"Gare du Nord","num":"1842","type":"metro","isHub":true,"routes":[[16,5],[17,21],[18,9],[19,12],[128,0],[129,1]],"isAmbiguous":true},"1844":{"commune":"SAINT-OUEN","lat":"48.9060316197727","lignes":{"metro":["13"]},"lng":"2.33173327604333","nom":"Garibaldi","num":"1844","type":"metro","isHub":false,"routes":[[37,5],[39,20]]},"1846":{"commune":"PARIS-08EME","lat":"48.8719825731694","lignes":{"metro":["1"]},"lng":"2.30046268343343","nom":"George V","num":"1846","type":"metro","isHub":false,"routes":[[8,17],[9,7]]},"1848":{"commune":"PARIS-13EME","lat":"48.8313647071449","lignes":{"metro":["6"]},"lng":"2.34393889430969","nom":"Glacière","num":"1848","type":"metro","isHub":false,"routes":[[20,16],[21,11]]},"1849":{"commune":"PARIS-10EME","lat":"48.8696803933807","lignes":{"metro":["11"]},"lng":"2.3712726500969","nom":"Goncourt (Hôpital Saint-Louis)","num":"1849","type":"metro","isHub":false,"routes":[[32,7],[33,5]]},"1850":{"commune":"PUTEAUX","lat":"48.8919344692345","lignes":{"metro":["1"],"rer":["A"]},"lng":"2.23788279833084","nom":"La Défense (Grande Arche)","num":"1850","type":"rer","isHub":true,"routes":[[8,24],[9,0],[82,1],[83,1]],"isAmbiguous":true},"1851":{"commune":"PARIS-18EME","lat":"48.8924675161233","lignes":{"metro":["13"]},"lng":"2.32722675495985","nom":"Guy-Môquet","num":"1851","type":"metro","isHub":false,"routes":[[37,7],[39,18]]},"1852":{"commune":"PARIS-09EME","lat":"48.8733427700542","lignes":{"metro":["3","9"]},"lng":"2.3285077502868","nom":"Havre-Caumartin","num":"1852","type":"metro","isHub":true,"routes":[[12,10],[13,14],[28,18],[29,18],[66,0],[67,2]]},"1853":{"commune":"PANTIN","lat":"48.8913165639098","lignes":{"metro":["5"]},"lng":"2.40319741378238","nom":"Hoche","num":"1853","type":"metro","isHub":false,"routes":[[18,3],[19,18]]},"1855":{"commune":"PARIS-04EME","lat":"48.8567695272423","lignes":{"metro":["11","1"]},"lng":"2.35149453979435","nom":"Hôtel de Ville","num":"1855","type":"metro","isHub":true,"routes":[[8,9],[9,15],[32,11],[33,1]]},"1857":{"commune":"PARIS-07EME","lat":"48.8616865404563","lignes":{"metro":["13","8"]},"lng":"2.31435704324728","nom":"Invalides","num":"1857","type":"metro","isHub":true,"routes":[[26,8],[27,29],[36,12],[37,14],[38,11],[39,11]]},"1858":{"commune":"PARIS-16EME","lat":"48.8644728974464","lignes":{"metro":["9"]},"lng":"2.2937999591139","nom":"Iéna","num":"1858","type":"metro","isHub":false,"routes":[[28,12],[29,24]]},"1859":{"commune":"PARIS-10EME","lat":"48.8709749040173","lignes":{"metro":["5"]},"lng":"2.36053788394075","nom":"Jacques-Bonsergent","num":"1859","type":"metro","isHub":false,"routes":[[18,11],[19,10]]},"1860":{"commune":"PARIS-16EME","lat":"48.8523396005309","lignes":{"metro":["9"]},"lng":"2.26790681383725","nom":"Jasmin","num":"1860","type":"metro","isHub":false,"routes":[[28,7],[29,29]]},"1861":{"commune":"PARIS-19EME","lat":"48.8825437461168","lignes":{"metro":["2","5","7B"]},"lng":"2.37023181919226","nom":"Jaurès","num":"1861","type":"metro","isHub":true,"routes":[[10,15],[11,9],[18,7],[19,14],[42,1],[43,5]]},"1862":{"commune":"PARIS-15EME","lat":"48.8461034637876","lignes":{"metro":["10"]},"lng":"2.27845497841475","nom":"Javel-André-Citroen","num":"1862","type":"metro","isHub":false,"routes":[[30,5],[31,14]]},"1864":{"commune":"PARIS-20EME","lat":"48.8751674276782","lignes":{"metro":["11"]},"lng":"2.38919309981893","nom":"Jourdain","num":"1864","type":"metro","isHub":false,"routes":[[32,4],[33,8]]},"1865":{"commune":"PARIS-18EME","lat":"48.8924519921638","lignes":{"metro":["12"]},"lng":"2.34446469630622","nom":"Jules Joffrin","num":"1865","type":"metro","isHub":false,"routes":[[34,4],[35,24]]},"1866":{"commune":"PARIS-05EME","lat":"48.8458380895278","lignes":{"metro":["10","7"]},"lng":"2.35469159842714","nom":"Jussieu","num":"1866","type":"metro","isHub":true,"routes":[[22,22],[23,22],[24,10],[25,11],[30,18],[31,1]]},"1867":{"commune":"PARIS-16EME","lat":"48.8710948130145","lignes":{"metro":["6"]},"lng":"2.29307915421584","nom":"Kléber","num":"1867","type":"metro","isHub":false,"routes":[[20,1],[21,26]]},"1868":{"commune":"PARIS-10EME","lat":"48.8839663987791","lignes":{"metro":["2"]},"lng":"2.35849962591676","nom":"La Chapelle","num":"1868","type":"metro","isHub":false,"routes":[[10,13],[11,11]]},"1869":{"commune":"LA COURNEUVE","lat":"48.9209043594324","lignes":{"metro":["7"]},"lng":"2.41045542691904","nom":"La Courneuve-8-Mai-1945","num":"1869","type":"metro","isHub":true,"routes":[[22,0],[23,0],[24,32],[25,33],[78,1],[79,0]]},"1872":{"commune":"PARIS-17EME","lat":"48.8873918956469","lignes":{"metro":["13"]},"lng":"2.32603867708385","nom":"La Fourche","num":"1872","type":"metro","isHub":false,"routes":[[36,6],[37,8],[38,17],[39,17]]},"1874":{"commune":"PARIS-15EME","lat":"48.8491605024288","lignes":{"metro":["10","6","8"]},"lng":"2.29794929910712","nom":"La Motte-Picquet-Grenelle","num":"1874","type":"metro","isHub":true,"routes":[[20,7],[21,20],[26,5],[27,32],[30,8],[31,11]]},"1876":{"commune":"PARIS-16EME","lat":"48.8579377398982","lignes":{"metro":["9"]},"lng":"2.27411706697758","nom":"La Muette","num":"1876","type":"metro","isHub":false,"routes":[[28,9],[29,27]]},"1879":{"commune":"PARIS-18EME","lat":"48.8897560451806","lignes":{"metro":["12"]},"lng":"2.33889013654466","nom":"Lamarck-Caulaincourt","num":"1879","type":"metro","isHub":false,"routes":[[34,5],[35,23]]},"1882":{"commune":"PARIS-19EME","lat":"48.8850422338428","lignes":{"metro":["5"]},"lng":"2.3795955531979","nom":"Laumière","num":"1882","type":"metro","isHub":false,"routes":[[18,6],[19,15]]},"1885":{"commune":"PARIS-08EME","lat":"48.8661829956315","lignes":{"metro":["12","1","8"]},"lng":"2.32329987859148","nom":"Concorde","num":"1885","type":"metro","isHub":true,"routes":[[8,14],[9,10],[26,9],[27,28],[34,13],[35,15]]},"1887":{"commune":"PARIS-15EME","lat":"48.8374696207371","lignes":{"metro":["12"]},"lng":"2.29689958279762","nom":"Convention","num":"1887","type":"metro","isHub":false,"routes":[[34,25],[35,3]]},"1888":{"commune":"PARIS-19EME","lat":"48.8949061258374","lignes":{"metro":["7"]},"lng":"2.38244550268222","nom":"Corentin-Cariou","num":"1888","type":"metro","isHub":false,"routes":[[22,4],[23,4],[24,28],[25,29]]},"1889":{"commune":"ISSY-LES-MOULINEAUX","lat":"48.8272434444069","lignes":{"metro":["12"]},"lng":"2.27930670368976","nom":"Corentin-Celton","num":"1889","type":"metro","isHub":false,"routes":[[34,27],[35,1]]},"1890":{"commune":"PARIS-13EME","lat":"48.8296116848646","lignes":{"metro":["6"]},"lng":"2.34943832730731","nom":"Corvisart","num":"1890","type":"metro","isHub":false,"routes":[[20,17],[21,10]]},"1892":{"commune":"PARIS-08EME","lat":"48.8792362487704","lignes":{"metro":["2"]},"lng":"2.30360515293852","nom":"Courcelles","num":"1892","type":"metro","isHub":false,"routes":[[10,4],[11,20]]},"1893":{"commune":"PARIS-11EME","lat":"48.8689698757764","lignes":{"metro":["2"]},"lng":"2.379868518699","nom":"Couronnes","num":"1893","type":"metro","isHub":false,"routes":[[10,18],[11,6]]},"1894":{"commune":"PARIS-19EME","lat":"48.8906811628606","lignes":{"metro":["7"]},"lng":"2.37681528947191","nom":"Crimée","num":"1894","type":"metro","isHub":false,"routes":[[22,5],[23,5],[24,27],[25,28]]},"1896":{"commune":"MONTREUIL","lat":"48.8579269412394","lignes":{"metro":["9"]},"lng":"2.43609830308268","nom":"Croix-de-Chavaux (Jacques Duclos)","num":"1896","type":"metro","isHub":false,"routes":[[28,35],[29,1]]},"1897":{"commune":"CRETEIL","lat":"48.7964623870188","lignes":{"metro":["8"]},"lng":"2.44906187102647","nom":"Créteil-L'Echat (Hôpital Henri Mondor)","num":"1897","type":"metro","isHub":false,"routes":[[26,34],[27,3]]},"1898":{"commune":"CRETEIL","lat":"48.7797484034104","lignes":{"metro":["8"]},"lng":"2.45914426746537","nom":"Créteil-Préfecture (Hôtel de Ville)","num":"1898","type":"metro","isHub":false,"routes":[[26,36],[27,1]]},"1899":{"commune":"CRETEIL","lat":"48.7893506910917","lignes":{"metro":["8"]},"lng":"2.45144739751129","nom":"Créteil-Université","num":"1899","type":"metro","isHub":false,"routes":[[26,35],[27,2]]},"1900":{"commune":"PARIS-19EME","lat":"48.8820231366362","lignes":{"metro":["7B"]},"lng":"2.39270205235331","nom":"Danube","num":"1900","type":"metro","isHub":false,"routes":[[43,1]]},"1901":{"commune":"PARIS-12EME","lat":"48.8393629125482","lignes":{"metro":["6","8"]},"lng":"2.39584590805199","nom":"Daumesnil (Félix Eboué)","num":"1901","type":"metro","isHub":true,"routes":[[20,24],[21,3],[26,25],[27,12]]},"1902":{"commune":"PARIS-14EME","lat":"48.8335919035577","lignes":{"metro":["4","6"]},"lng":"2.33189346001924","nom":"Denfert-Rochereau","num":"1902","type":"metro","isHub":true,"routes":[[16,22],[17,4],[20,14],[21,13],[124,0],[125,1]],"isAmbiguous":true},"1906":{"commune":"PARIS-12EME","lat":"48.8389122332307","lignes":{"metro":["6"]},"lng":"2.38895257216093","nom":"Dugommier","num":"1906","type":"metro","isHub":false,"routes":[[20,23],[21,4]]},"1907":{"commune":"PARIS-15EME","lat":"48.8508056365633","lignes":{"metro":["6"]},"lng":"2.29276958714394","nom":"Dupleix","num":"1907","type":"metro","isHub":false,"routes":[[20,6],[21,21]]},"1908":{"commune":"PARIS-07EME","lat":"48.8467835319339","lignes":{"metro":["10","13"]},"lng":"2.31672285703746","nom":"Duroc","num":"1908","type":"metro","isHub":true,"routes":[[30,10],[31,9],[36,15],[37,17],[38,8],[39,8]]},"1909":{"commune":"PARIS-07EME","lat":"48.8545185491092","lignes":{"metro":["8"]},"lng":"2.30554381620113","nom":"Ecole Militaire","num":"1909","type":"metro","isHub":false,"routes":[[26,6],[27,31]]},"1910":{"commune":"PARIS-14EME","lat":"48.8403339877984","lignes":{"metro":["6"]},"lng":"2.3261713916465","nom":"Edgar-Quinet","num":"1910","type":"metro","isHub":false,"routes":[[20,12],[21,15]]},"1911":{"commune":"PARIS-16EME","lat":"48.8471813581933","lignes":{"metro":["10"]},"lng":"2.26890098784783","nom":"Eglise d'Auteuil","num":"1911","type":"metro","isHub":false,"routes":[[31,15]]},"1912":{"commune":"PANTIN","lat":"48.893113981741","lignes":{"metro":["5"]},"lng":"2.41328568033304","nom":"Eglise de Pantin","num":"1912","type":"metro","isHub":false,"routes":[[18,2],[19,19]]},"1913":{"commune":"PUTEAUX","lat":"48.887843122138","lignes":{"metro":["1"]},"lng":"2.25044232471862","nom":"Esplanade de la Défense","num":"1913","type":"metro","isHub":false,"routes":[[8,23],[9,1]]},"1914":{"commune":"PARIS-01ER","lat":"48.8634946589771","lignes":{"metro":["4"]},"lng":"2.34866984004444","nom":"Etienne Marcel","num":"1914","type":"metro","isHub":false,"routes":[[16,10],[17,16]]},"1915":{"commune":"PARIS-08EME","lat":"48.8787098768874","lignes":{"metro":["3"]},"lng":"2.32282484061213","nom":"Europe","num":"1915","type":"metro","isHub":false,"routes":[[12,8],[13,16]]},"1916":{"commune":"PARIS-16EME","lat":"48.8424273379119","lignes":{"metro":["9"]},"lng":"2.25973661579821","nom":"Exelmans","num":"1916","type":"metro","isHub":false,"routes":[[28,4],[29,32]]},"1917":{"commune":"PARIS-11EME","lat":"48.8502384503521","lignes":{"metro":["8"]},"lng":"2.38427458098634","nom":"Faidherbe-Chaligny","num":"1917","type":"metro","isHub":false,"routes":[[26,22],[27,15]]},"1918":{"commune":"PARIS-15EME","lat":"48.844637894177","lignes":{"metro":["12"]},"lng":"2.31749646866691","nom":"Falguière","num":"1918","type":"metro","isHub":false,"routes":[[34,21],[35,7]]},"1919":{"commune":"PARIS-03EME","lat":"48.8633028923386","lignes":{"metro":["8"]},"lng":"2.36645313804373","nom":"Filles du Calvaire","num":"1919","type":"metro","isHub":false,"routes":[[26,17],[27,20]]},"1923":{"commune":"AUBERVILLIERS","lat":"48.9146921997335","lignes":{"metro":["7"]},"lng":"2.40417710143886","nom":"Fort d'Aubervilliers","num":"1923","type":"metro","isHub":false,"routes":[[22,1],[23,1],[24,31],[25,32]]},"1924":{"commune":"PARIS-08EME","lat":"48.8693052286485","lignes":{"metro":["1","9"]},"lng":"2.30830876451203","nom":"Franklin-Roosevelt","num":"1924","type":"metro","isHub":true,"routes":[[8,16],[9,8],[28,14],[29,22]]},"1925":{"commune":"PARIS-15EME","lat":"48.8429772288922","lignes":{"metro":["8"]},"lng":"2.29199788779218","nom":"Félix Faure","num":"1925","type":"metro","isHub":false,"routes":[[26,3],[27,34]]},"1927":{"commune":"PARIS-14EME","lat":"48.8384911503461","lignes":{"metro":["13"]},"lng":"2.32258277982791","nom":"Gaité","num":"1927","type":"metro","isHub":false,"routes":[[36,17],[37,19],[38,6],[39,6]]},"1928":{"commune":"BAGNOLET","lat":"48.8633345779424","lignes":{"metro":["3"]},"lng":"2.41568260426712","nom":"Gallieni (Parc de Bagnolet)","num":"1928","type":"metro","isHub":false,"routes":[[12,24],[13,0]]},"1929":{"commune":"PARIS-20EME","lat":"48.8648347782704","lignes":{"metro":["3B","3"]},"lng":"2.39846223866212","nom":"Gambetta","num":"1929","type":"metro","isHub":true,"routes":[[12,22],[13,2],[14,3],[15,0]]},"1930":{"commune":"PARIS-02EME","lat":"48.8687976838596","lignes":{"metro":["3"]},"lng":"2.34123268333609","nom":"Bourse","num":"1930","type":"metro","isHub":false,"routes":[[12,13],[13,11]]},"1931":{"commune":"PARIS-17EME","lat":"48.8903794211931","lignes":{"metro":["13"]},"lng":"2.32002765158099","nom":"Brochant","num":"1931","type":"metro","isHub":false,"routes":[[36,5],[38,18]]},"1933":{"commune":"PARIS-11EME","lat":"48.8565162145681","lignes":{"metro":["5"]},"lng":"2.3709371333348","nom":"Bréguet-Sabin","num":"1933","type":"metro","isHub":false,"routes":[[18,15],[19,6]]},"1936":{"commune":"PARIS-19EME","lat":"48.8777769835483","lignes":{"metro":["7B"]},"lng":"2.38112931956877","nom":"Buttes-Chaumont","num":"1936","type":"metro","isHub":false,"routes":[[42,3],[43,3]]},"1937":{"commune":"PARIS-20EME","lat":"48.8517360615634","lignes":{"metro":["9"]},"lng":"2.40102482535231","nom":"Buzenval","num":"1937","type":"metro","isHub":false,"routes":[[28,31],[29,5]]},"1938":{"commune":"VINCENNES","lat":"48.8453342425325","lignes":{"metro":["1"]},"lng":"2.42923849792977","nom":"Bérault","num":"1938","type":"metro","isHub":false,"routes":[[8,1],[9,23]]},"1939":{"commune":"PARIS-09EME","lat":"48.875475187116","lignes":{"metro":["7"]},"lng":"2.34305895381275","nom":"Cadet","num":"1939","type":"metro","isHub":false,"routes":[[22,12],[23,12],[24,20],[25,21]]},"1940":{"commune":"PARIS-15EME","lat":"48.8474563362776","lignes":{"metro":["6"]},"lng":"2.30180780419231","nom":"Cambronne","num":"1940","type":"metro","isHub":false,"routes":[[20,8],[21,19]]},"1941":{"commune":"PARIS-13EME","lat":"48.8357759721732","lignes":{"metro":["5"]},"lng":"2.35815314107711","nom":"Campo-Formio","num":"1941","type":"metro","isHub":false,"routes":[[18,20],[19,1]]},"1942":{"commune":"PARIS-05EME","lat":"48.8463912485782","lignes":{"metro":["10"]},"lng":"2.35147807315592","nom":"Cardinal-Lemoine","num":"1942","type":"metro","isHub":false,"routes":[[30,17],[31,2]]},"1944":{"commune":"PARIS-05EME","lat":"48.8405358795008","lignes":{"metro":["7"]},"lng":"2.35142881208972","nom":"Censier-Daubenton","num":"1944","type":"metro","isHub":false,"routes":[[22,24],[23,24],[24,8],[25,9]]},"1949":{"commune":"PARIS-08EME","lat":"48.8674114214171","lignes":{"metro":["13","1"]},"lng":"2.31395945009909","nom":"Champs-Elysées-Clémenceau","num":"1949","type":"metro","isHub":true,"routes":[[8,15],[9,9],[36,11],[37,13],[38,12],[39,12]]},"1950":{"commune":"PARIS-16EME","lat":"48.8447174018404","lignes":{"metro":["10"]},"lng":"2.26654168725371","nom":"Chardon-Lagache","num":"1950","type":"metro","isHub":false,"routes":[[30,3]]},"1951":{"commune":"CHARENTON-LE-PONT","lat":"48.8213638104296","lignes":{"metro":["8"]},"lng":"2.41407434683562","nom":"Charenton-Ecoles","num":"1951","type":"metro","isHub":false,"routes":[[26,30],[27,7]]},"1952":{"commune":"PARIS-15EME","lat":"48.8463362741362","lignes":{"metro":["10"]},"lng":"2.28633238561987","nom":"Charles Michels","num":"1952","type":"metro","isHub":false,"routes":[[30,6],[31,13]]},"1953":{"commune":"PARIS-08EME","lat":"48.8744076036607","lignes":{"metro":["1","2","6"]},"lng":"2.29576268465124","nom":"Charles de Gaulle-Étoile","num":"1953","type":"metro","isHub":true,"routes":[[8,18],[9,6],[10,2],[11,22],[20,0],[21,27],[64,0],[65,1]],"isAmbiguous":true},"1955":{"commune":"PARIS-11EME","lat":"48.8547662368488","lignes":{"metro":["9"]},"lng":"2.38527064781972","nom":"Charonne","num":"1955","type":"metro","isHub":false,"routes":[[28,28],[29,8]]},"1957":{"commune":"PARIS-09EME","lat":"48.8728970365659","lignes":{"metro":["7","9"]},"lng":"2.33350116136944","nom":"Chaussée d'Antin (La Fayette)","num":"1957","type":"metro","isHub":true,"routes":[[22,14],[23,14],[24,18],[25,19],[28,19],[29,17]]},"1958":{"commune":"PARIS-03EME","lat":"48.8575640614859","lignes":{"metro":["8"]},"lng":"2.36793452563335","nom":"Chemin Vert","num":"1958","type":"metro","isHub":false,"routes":[[26,19],[27,18]]},"1959":{"commune":"PARIS-13EME","lat":"48.8344079354527","lignes":{"metro":["6"]},"lng":"2.36716524071823","nom":"Chevaleret","num":"1959","type":"metro","isHub":false,"routes":[[20,20],[21,7]]},"1960":{"commune":"PARIS-18EME","lat":"48.8871760670966","lignes":{"metro":["4"]},"lng":"2.34982663344309","nom":"Château Rouge","num":"1960","type":"metro","isHub":false,"routes":[[16,3],[17,23]]},"1961":{"commune":"PARIS-10EME","lat":"48.8725890109106","lignes":{"metro":["4"]},"lng":"2.35547036877069","nom":"Château d'Eau","num":"1961","type":"metro","isHub":false,"routes":[[16,7],[17,19]]},"1962":{"commune":"VINCENNES","lat":"48.8445363116503","lignes":{"metro":["1"]},"lng":"2.43950970545674","nom":"Château de Vincennes","num":"1962","type":"metro","isHub":false,"routes":[[8,0],[9,24]]},"1963":{"commune":"PARIS-10EME","lat":"48.8783126784077","lignes":{"metro":["7"]},"lng":"2.36229890860251","nom":"Château Landon","num":"1963","type":"metro","isHub":false,"routes":[[22,9],[23,9],[24,23],[25,24]]},"1964":{"commune":"PARIS-01ER","lat":"48.8585195224421","lignes":{"metro":["11","14","1","4","7"]},"lng":"2.34711940104793","nom":"Châtelet","num":"1964","type":"metro","isHub":true,"routes":[[8,10],[9,14],[16,12],[17,14],[22,19],[23,19],[24,13],[25,14],[32,12],[33,0],[40,5],[41,3],[70,0],[71,2]]},"1967":{"nom":"Châtelet-Les Halles","isHub":true,"lignes":{"rer":["A","B"]},"num":"1967","lat":"48.86146371055862","lng":"2.346844131603014","cp":"75101","type":"rer","routes":[[48,13],[49,14],[56,27],[57,27],[58,13],[59,13],[60,12],[61,12],[62,11],[63,11],[70,1],[71,1]]},"1968":{"commune":"CHATILLON","lat":"48.8103147675511","lignes":{"metro":["13"]},"lng":"2.30124802198432","nom":"Châtillon Montrouge","num":"1968","type":"metro","isHub":false,"routes":[[36,23],[37,25],[38,0],[39,0]]},"1969":{"commune":"PARIS-04EME","lat":"48.8551005857888","lignes":{"metro":["4"]},"lng":"2.3467203742446","nom":"Cité","num":"1969","type":"metro","isHub":false,"routes":[[16,13],[17,13]]},"1972":{"commune":"PARIS-10EME","lat":"48.8779422921331","lignes":{"metro":["2"]},"lng":"2.37014713779616","nom":"Colonel Fabien","num":"1972","type":"metro","isHub":false,"routes":[[10,16],[11,8]]},"1973":{"commune":"PARIS-15EME","lat":"48.844811191807","lignes":{"metro":["8"]},"lng":"2.29335345012085","nom":"Commerce","num":"1973","type":"metro","isHub":false,"routes":[[26,4],[27,33]]},"1975":{"commune":"PARIS-18EME","lat":"48.8844176451841","lignes":{"metro":["12"]},"lng":"2.33871281165883","nom":"Abbesses","num":"1975","type":"metro","isHub":false,"routes":[[34,6],[35,22]]},"1978":{"commune":"PARIS-11EME","lat":"48.8561744489676","lignes":{"metro":["2"]},"lng":"2.3949898158233","nom":"Alexandre-Dumas","num":"1978","type":"metro","isHub":false,"routes":[[10,22],[11,2]]},"1980":{"commune":"PARIS-16EME","lat":"48.8646460306735","lignes":{"metro":["9"]},"lng":"2.30088336611718","nom":"Alma-Marceau","num":"1980","type":"metro","isHub":false,"routes":[[28,13],[29,23]]},"1981":{"commune":"PARIS-14EME","lat":"48.828398514348","lignes":{"metro":["4"]},"lng":"2.32674567371924","nom":"Alésia","num":"1981","type":"metro","isHub":false,"routes":[[16,24],[17,2]]},"1982":{"commune":"LEVALLOIS-PERRET","lat":"48.8924723754181","lignes":{"metro":["3"]},"lng":"2.285373878396","nom":"Anatole-France","num":"1982","type":"metro","isHub":false,"routes":[[12,1],[13,23]]},"1984":{"commune":"PARIS-18EME","lat":"48.8831322902739","lignes":{"metro":["2"]},"lng":"2.34397282520569","nom":"Anvers","num":"1984","type":"metro","isHub":false,"routes":[[10,11],[11,13]]},"1986":{"commune":"PARIS-17EME","lat":"48.875533092935","lignes":{"metro":["1"]},"lng":"2.2893216639617","nom":"Argentine","num":"1986","type":"metro","isHub":false,"routes":[[8,19],[9,5]]},"1988":{"commune":"PARIS-03EME","lat":"48.8652929436681","lignes":{"metro":["11","3"]},"lng":"2.35637778086357","nom":"Arts-et-Métiers","num":"1988","type":"metro","isHub":true,"routes":[[12,16],[13,8],[32,9],[33,3]]},"1989":{"commune":"PARIS-07EME","lat":"48.8608996856827","lignes":{"metro":["12"]},"lng":"2.32063223779825","nom":"Assemblée Nationale","num":"1989","type":"metro","isHub":false,"routes":[[34,14],[35,14]]},"1992":{"commune":"AUBERVILLIERS","lat":"48.9038299162483","lignes":{"metro":["7"]},"lng":"2.3920219501423","nom":"Aubervilliers Pantin (4 Chemins)","num":"1992","type":"metro","isHub":false,"routes":[[22,2],[23,2],[24,30],[25,31]]},"1994":{"commune":"PARIS-15EME","lat":"48.8469642745973","lignes":{"metro":["10"]},"lng":"2.29493807524416","nom":"Avenue Emile-Zola","num":"1994","type":"metro","isHub":false,"routes":[[30,7],[31,12]]},"1995":{"commune":"PARIS-11EME","lat":"48.8509782113622","lignes":{"metro":["2"]},"lng":"2.39798013009568","nom":"Avron","num":"1995","type":"metro","isHub":false,"routes":[[10,23],[11,1]]},"1997":{"commune":"PARIS-15EME","lat":"48.8362754634973","lignes":{"metro":["8"]},"lng":"2.27821832700082","nom":"Balard","num":"1997","type":"metro","isHub":true,"routes":[[26,0],[27,37],[88,2],[89,0]],"isAmbiguous":true},"1999":{"commune":"PARIS-09EME","lat":"48.8836207315381","lignes":{"metro":["2","4"]},"lng":"2.34973719426844","nom":"Barbès-Rochechouart","num":"1999","type":"metro","isHub":true,"routes":[[10,12],[11,12],[16,4],[17,22]]},"2000":{"commune":"PARIS-04EME","lat":"48.8528417309667","lignes":{"metro":["1","5","8"]},"lng":"2.36918060506559","nom":"Bastille","num":"2000","type":"metro","isHub":true,"routes":[[8,7],[9,17],[18,16],[19,5],[26,20],[27,17]]},"2003":{"commune":"PARIS-12EME","lat":"48.8418961424237","lignes":{"metro":["6"]},"lng":"2.40120562705964","nom":"Bel-Air","num":"2003","type":"metro","isHub":false,"routes":[[20,25],[21,2]]},"2004":{"commune":"PARIS-19EME","lat":"48.8720416041714","lignes":{"metro":["11","2"]},"lng":"2.37680560769084","nom":"Belleville","num":"2004","type":"metro","isHub":true,"routes":[[10,17],[11,7],[32,6],[33,6]]},"2005":{"commune":"PARIS-12EME","lat":"48.8404280893475","lignes":{"metro":["14","6"]},"lng":"2.37958296880394","nom":"Bercy","num":"2005","type":"metro","isHub":true,"routes":[[20,22],[21,5],[40,3],[41,5]]},"2006":{"commune":"BOULOGNE-BILLANCOURT","lat":"48.8319437593265","lignes":{"metro":["9"]},"lng":"2.23810999708736","nom":"Billancourt","num":"2006","type":"metro","isHub":false,"routes":[[28,1],[29,35]]},"2007":{"commune":"PARIS-15EME","lat":"48.8543331586284","lignes":{"metro":["6"]},"lng":"2.28878285580103","nom":"Bir-Hakeim (Grenelle)","num":"2007","type":"metro","isHub":false,"routes":[[20,5],[21,22]]},"2009":{"commune":"PARIS-18EME","lat":"48.8836536085134","lignes":{"metro":["2"]},"lng":"2.33166752315741","nom":"Blanche","num":"2009","type":"metro","isHub":false,"routes":[[10,9],[11,15]]},"2010":{"commune":"BOBIGNY","lat":"48.9069699442981","lignes":{"metro":["5"]},"lng":"2.44962071744096","nom":"Bobigny - Pablo-Picasso (M5)","num":"2010","type":"metro","isHub":true,"routes":[[18,0],[19,21],[80,1],[81,0]]},"2011":{"commune":"BOBIGNY","lat":"48.8952689905167","lignes":{"metro":["5"]},"lng":"2.42480187771966","nom":"Bobigny - Pantin (Raymond Queneau)","num":"2011","type":"metro","isHub":false,"routes":[[18,1],[19,20]]},"2012":{"commune":"PARIS-16EME","lat":"48.8670270457182","lignes":{"metro":["6"]},"lng":"2.29047384540453","nom":"Boissière","num":"2012","type":"metro","isHub":false,"routes":[[20,2],[21,25]]},"2014":{"commune":"PARIS-19EME","lat":"48.8805834299155","lignes":{"metro":["7B"]},"lng":"2.37397783298056","nom":"Bolivar","num":"2014","type":"metro","isHub":false,"routes":[[42,2],[43,4]]},"2015":{"commune":"PARIS-09EME","lat":"48.8705587205312","lignes":{"metro":["8","9"]},"lng":"2.34867956971335","nom":"Bonne Nouvelle","num":"2015","type":"metro","isHub":false,"routes":[[26,14],[27,23],[28,22],[29,14]]},"2016":{"commune":"PARIS-19EME","lat":"48.8793377265439","lignes":{"metro":["7B"]},"lng":"2.38873399145736","nom":"Botzaris","num":"2016","type":"metro","isHub":false,"routes":[[42,4],[43,2]]},"2017":{"commune":"PARIS-15EME","lat":"48.8412408953716","lignes":{"metro":["8"]},"lng":"2.28763431751091","nom":"Boucicaut","num":"2017","type":"metro","isHub":false,"routes":[[26,2],[27,35]]},"2018":{"commune":"BOULOGNE-BILLANCOURT","lat":"48.8422216612984","lignes":{"metro":["10"]},"lng":"2.23883585019659","nom":"Boulogne-Jean-Jaurès","num":"2018","type":"metro","isHub":false,"routes":[[30,1],[31,18]]},"2019":{"commune":"BOULOGNE-BILLANCOURT","lat":"48.8407983651067","lignes":{"metro":["10"]},"lng":"2.22821129036639","nom":"Boulogne Pont de Saint-Cloud","num":"2019","type":"metro","isHub":true,"routes":[[30,0],[31,19],[84,1],[85,0]]},"2021":{"commune":"PARIS-18EME","lat":"48.8844354700414","lignes":{"funi":["FUN"]},"lng":"2.34340064272908","nom":"Funiculaire Gare basse","num":"2021","type":"funi","isHub":false,"routes":[[46,1],[47,0]]},"2022":{"commune":"PARIS-18EME","lat":"48.8856217864643","lignes":{"funi":["FUN"]},"lng":"2.34334627251386","nom":"Funiculaire Gare haute","num":"2022","type":"funi","isHub":false,"routes":[[46,0],[47,1]]},"11038":{"commune":"ORLY","lat":"48.728513469933","lignes":{"orlyval":["ORV"]},"lng":"2.35872141880901","nom":"Orly-Ouest","num":"11038","type":"orlyval","isHub":false,"routes":[[44,1],[45,1]]},"11039":{"commune":"ORLY","lat":"48.727837315206","lignes":{"orlyval":["ORV"]},"lng":"2.36795987285204","nom":"Orly-Sud","num":"11039","type":"orlyval","isHub":false,"routes":[[44,2],[45,0]]},"21582":{"commune":"MAISONS-ALFORT","lat":"48.8084176209203","lignes":{"metro":["8"]},"lng":"2.43558220356454","nom":"Maisons-Alfort-Stade","num":"21582","type":"metro","isHub":false,"routes":[[26,32],[27,5]]},"21583":{"commune":"MAISONS-ALFORT","lat":"48.8031418697523","lignes":{"metro":["8"]},"lng":"2.44499102669377","nom":"Maisons-Alfort-Les Juilliottes","num":"21583","type":"metro","isHub":false,"routes":[[26,33],[27,4]]},"22439":{"commune":"SAINT-DENIS","lat":"48.9296276098426","lignes":{"metro":["13"]},"lng":"2.35741016429387","nom":"Saint-Denis-Porte de Paris","num":"22439","type":"metro","isHub":false,"routes":[[37,2],[39,23]]},"22441":{"commune":"CHATILLON","lat":"48.8146679725106","lignes":{"metro":["13"]},"lng":"2.29699896350216","nom":"Malakoff-Rue Etienne Dolet","num":"22441","type":"metro","isHub":false,"routes":[[36,22],[37,24],[38,1],[39,1]]},"22442":{"commune":"CHATILLON","lat":"48.8231314024501","lignes":{"metro":["13"]},"lng":"2.29701508516275","nom":"Malakoff-Plateau de Vanves","num":"22442","type":"metro","isHub":false,"routes":[[36,21],[37,23],[38,2],[39,2]]},"22443":{"commune":"ASNIERES-SUR-SEINE","lat":"48.9162335021232","lignes":{"metro":["13"]},"lng":"2.29492376422254","nom":"Gabriel-Péri","num":"22443","type":"metro","isHub":false,"routes":[[36,2],[38,21]]},"23674":{"commune":"MAISONS-ALFORT","lat":"48.8151517942859","lignes":{"metro":["8"]},"lng":"2.42075635931134","nom":"Ecole Vétérinaire de Maisons-Alfort","num":"23674","type":"metro","isHub":false,"routes":[[26,31],[27,6]]},"50047":{"commune":"PARIS-02EME","lat":"48.8669463020695","lignes":{"metro":["14"]},"lng":"2.33366506577888","nom":"Pyramides","num":"50047","type":"metro","isHub":false,"routes":[[40,6],[41,2]],"isAmbiguous":true},"50055":{"commune":"PARIS-12EME","lat":"48.8334843071503","lignes":{"metro":["14"]},"lng":"2.38761298844824","nom":"Cour Saint-Emilion","num":"50055","type":"metro","isHub":false,"routes":[[40,2],[41,6]]},"50399":{"commune":"SAINT-DENIS","lat":"48.9456254805762","lignes":{"metro":["13"]},"lng":"2.36235875823436","nom":"Saint-Denis-Universite","num":"50399","type":"metro","isHub":false,"routes":[[37,0],[39,25]]},"50622":{"commune":"SAINT-DENIS","lat":"48.9366033097107","lignes":{"metro":["13"]},"lng":"2.35941471750625","nom":"Basilique de Saint-Denis","num":"50622","type":"metro","isHub":true,"routes":[[37,1],[39,24],[76,1],[77,0]],"isAmbiguous":true},"51020":{"commune":"PARIS-13EME","lat":"48.8296059726948","lignes":{"metro":["14"]},"lng":"2.3760926116913","nom":"Bibliotheque-Francois Mitterrand","num":"51020","type":"metro","isHub":true,"routes":[[40,1],[41,7],[102,1],[103,0]]},"54166":{"commune":"PARIS-07EME","lat":"48.8573850541664","lignes":{"metro":["8"]},"lng":"2.30959864479432","nom":"La Tour-Maubourg","num":"54166","type":"metro","isHub":false,"routes":[[26,7],[27,30]]},"54244":{"commune":"PARIS-05EME","lat":"48.8510383641319","lignes":{"metro":["10"]},"lng":"2.34522158237992","nom":"Cluny-La Sorbonne","num":"54244","type":"metro","isHub":true,"routes":[[30,15],[31,4],[72,2],[73,0]]},"55329":{"commune":"PARIS-20EME","lat":"48.8753936353787","lignes":{"metro":["11"]},"lng":"2.3985900637686","nom":"Telegraphe","num":"55329","type":"metro","isHub":false,"routes":[[32,2],[33,10]]},"55330":{"commune":"PARIS-20EME","lat":"48.8738907818268","lignes":{"metro":["11"]},"lng":"2.38488983901602","nom":"Pyrenees","num":"55330","type":"metro","isHub":false,"routes":[[32,5],[33,7]]},"55372":{"commune":"PARIS-20EME","lat":"48.8526633633247","lignes":{"metro":["9"]},"lng":"2.40623072117296","nom":"Maraichers","num":"55372","type":"metro","isHub":false,"routes":[[28,32],[29,4]]},"171507":{"commune":"PARIS-13EME","lat":"48.8268582996999","lignes":{"metro":["14"]},"lng":"2.36729701204889","nom":"Olympiades","num":"171507","type":"metro","isHub":false,"routes":[[40,0],[41,8]]},"225436":{"commune":"ASNIERES-SUR-SEINE","lat":"48.9229162320519","lignes":{"metro":["13"]},"lng":"2.28582751788663","nom":"Les Agnettes","num":"225436","type":"metro","isHub":false,"routes":[[36,1],[38,22]]},"225437":{"commune":"ASNIERES-SUR-SEINE","lat":"48.9301634125573","lignes":{"metro":["13"]},"lng":"2.28407447167184","nom":"Asnieres-Gennevilliers Les Courtilles","num":"225437","type":"metro","isHub":true,"routes":[[36,0],[38,23],[74,1],[75,0]]},"228266":{"commune":"SAINT-DENIS","lat":"48.9194552102366","lignes":{"metro":["13"]},"lng":"2.34320024908898","nom":"Carrefour-Pleyel","num":"228266","type":"metro","isHub":false,"routes":[[37,3],[39,22]]},"397629":{"commune":"CRETEIL","lat":"48.7679578710506","lignes":{"metro":["8"]},"lng":"2.46598982922341","nom":"Pointe du Lac","num":"397629","type":"metro","isHub":false,"routes":[[26,37],[27,0]]},"454595":{"commune":"AUBERVILLIERS","lat":"48.9068910901493","lignes":{"metro":["12"]},"lng":"2.36579376393314","nom":"Front Populaire","num":"454595","type":"metro","isHub":false,"routes":[[34,0],[35,28]]},"3798439":{"nom":"Noisy-Le-Sec RER","isHub":true,"lignes":{"tram":["T1"]},"num":"3798439","lat":"48.89523832538295","lng":"2.4596680533915762","cp":"93053","type":"tram","routes":[[0,0],[1,35]]},"3798441":{"nom":"Petit Noisy","isHub":false,"lignes":{"tram":["T1"]},"num":"3798441","lat":"48.9000225902207","lng":"2.4652682831624073","cp":"93053","type":"tram","routes":[[0,1],[1,34]]},"3798443":{"nom":"Pont de Bondy","isHub":false,"lignes":{"tram":["T1"]},"num":"3798443","lat":"48.90531071691113","lng":"2.470093770476626","cp":"93053","type":"tram","routes":[[0,2],[1,33]]},"3798445":{"nom":"Auguste Delaune","isHub":false,"lignes":{"tram":["T1"]},"num":"3798445","lat":"48.906831915991035","lng":"2.459463678626273","cp":"Couturier","type":"tram","routes":[[0,3],[1,32]]},"3798447":{"nom":"Jean Rostand","isHub":false,"lignes":{"tram":["T1"]},"num":"3798447","lat":"48.90788894559004","lng":"2.4539309307063446","cp":"Couturier","type":"tram","routes":[[0,4],[1,31]]},"3798449":{"nom":"Bobigny - Pablo Picasso (T1)","isHub":true,"lignes":{"tram":["T1"]},"num":"3798449","lat":"48.90664360045724","lng":"2.449919944861118","cp":"93008","type":"tram","routes":[[0,5],[1,30],[80,0],[81,1]]},"3798451":{"nom":"Hôtel de Ville de Bobigny","isHub":false,"lignes":{"tram":["T1"]},"num":"3798451","lat":"48.90667646849791","lng":"2.443485109369775","cp":"93008","type":"tram","routes":[[0,6],[1,29]]},"3798453":{"nom":"Libération","isHub":false,"lignes":{"tram":["T1"]},"num":"3798453","lat":"48.90698613782764","lng":"2.4387686025565873","cp":"93008","type":"tram","routes":[[0,7],[1,28]]},"3798455":{"nom":"La Ferme","isHub":false,"lignes":{"tram":["T1"]},"num":"3798455","lat":"48.90973714291589","lng":"2.4376287301070017","cp":"93008","type":"tram","routes":[[0,8],[1,27]]},"3798457":{"nom":"Escadrille Normandie-Niémen","isHub":false,"lignes":{"tram":["T1"]},"num":"3798457","lat":"48.91331601792998","lng":"2.4351813603150196","cp":"93008","type":"tram","routes":[[0,9],[1,26]]},"3798460":{"nom":"Hôpital Avicenne","isHub":false,"lignes":{"tram":["T1"]},"num":"3798460","lat":"48.91586668357142","lng":"2.425791189982239","cp":"93029","type":"tram","routes":[[0,11],[1,24]]},"3798461":{"nom":"Drancy-Avenir","isHub":false,"lignes":{"tram":["T1"]},"num":"3798461","lat":"48.91811947930612","lng":"2.417231454306985","cp":"93029","type":"tram","routes":[[0,12],[1,23]]},"3798462":{"nom":"Maurice Lachâtre","isHub":false,"lignes":{"tram":["T1"]},"num":"3798462","lat":"48.91909197580446","lng":"2.4143420096346087","cp":"93029","type":"tram","routes":[[0,13],[1,22]]},"3798463":{"nom":"La Courneuve - 8 Mai 1945","isHub":true,"lignes":{"tram":["T1"]},"num":"3798463","lat":"48.920549824355035","lng":"2.411248597997996","cp":"93027","type":"tram","routes":[[0,14],[1,21],[78,0],[79,1]]},"3798465":{"nom":"Danton","isHub":false,"lignes":{"tram":["T1"]},"num":"3798465","lat":"48.92283520846237","lng":"2.40676511780942","cp":"93027","type":"tram","routes":[[0,15],[1,20]]},"3798467":{"nom":"Stade Géo André","isHub":false,"lignes":{"tram":["T1"]},"num":"3798467","lat":"48.92482454317505","lng":"2.400998894186525","cp":"93027","type":"tram","routes":[[0,16],[1,19]]},"3798469":{"nom":"Hôtel de Ville de La Courneuve","isHub":false,"lignes":{"tram":["T1"]},"num":"3798469","lat":"48.92741682316744","lng":"2.3929143192774025","cp":"93027","type":"tram","routes":[[0,17],[1,18]]},"3798471":{"nom":"La Courneuve - 6 Routes","isHub":false,"lignes":{"tram":["T1"]},"num":"3798471","lat":"48.9302423872842","lng":"2.3843790473947437","cp":"93027","type":"tram","routes":[[0,18],[1,17]]},"3798473":{"nom":"Cosmonautes","isHub":false,"lignes":{"tram":["T1"]},"num":"3798473","lat":"48.932015347893554","lng":"2.3774242929280556","cp":"93066","type":"tram","routes":[[0,19],[1,16]]},"3798474":{"nom":"Hôpital Delafontaine","isHub":false,"lignes":{"tram":["T1"]},"num":"3798474","lat":"48.93403058728353","lng":"2.3703191728194346","cp":"93066","type":"tram","routes":[[0,20],[1,15]]},"3798476":{"nom":"Cimetière de Saint-Denis","isHub":false,"lignes":{"tram":["T1"]},"num":"3798476","lat":"48.9364226573768","lng":"2.3640730779531007","cp":"93066","type":"tram","routes":[[0,21],[1,14]]},"3798478":{"nom":"Basilique de Saint-Denis","isHub":true,"lignes":{"tram":["T1"]},"num":"3798478","lat":"48.93761835474619","lng":"2.3620002027025153","cp":"93066","type":"tram","routes":[[0,22],[1,13],[76,0],[77,1]],"isAmbiguous":true},"3798481":{"nom":"Marché de Saint-Denis","isHub":false,"lignes":{"tram":["T1"]},"num":"3798481","lat":"48.93842831013453","lng":"2.3556981591811432","cp":"93066","type":"tram","routes":[[0,23],[1,12]]},"3798483":{"nom":"Théâtre Gérard Philippe","isHub":false,"lignes":{"tram":["T1"]},"num":"3798483","lat":"48.937224787599476","lng":"2.3502957727621445","cp":"93066","type":"tram","routes":[[0,24],[1,11]]},"3798484":{"nom":"Gare de St-Denis RER","isHub":true,"lignes":{"tram":["T1"]},"num":"3798484","lat":"48.93602997362251","lng":"2.3453847145473845","cp":"93066","type":"tram","routes":[[0,25],[1,10]]},"3798486":{"nom":"L'Île-Saint-Denis","isHub":false,"lignes":{"tram":["T1"]},"num":"3798486","lat":"48.93588643026154","lng":"2.339969233050552","cp":"93039","type":"tram","routes":[[0,26],[1,9]]},"3798488":{"nom":"Mairie de Villeneuve-La Garenne","isHub":false,"lignes":{"tram":["T1"]},"num":"3798488","lat":"48.93577857776938","lng":"2.3341172700973267","cp":"92078","type":"tram","routes":[[0,27],[1,8]]},"3798491":{"nom":"La Noue","isHub":false,"lignes":{"tram":["T1"]},"num":"3798491","lat":"48.93481656253936","lng":"2.3267377244265623","cp":"92078","type":"tram","routes":[[0,28],[1,7]]},"3798493":{"nom":"Chemin des Reniers","isHub":false,"lignes":{"tram":["T1"]},"num":"3798493","lat":"48.93446552176436","lng":"2.3216771403957503","cp":"92078","type":"tram","routes":[[0,29],[1,6]]},"3798495":{"nom":"Parc des Chanteraines","isHub":false,"lignes":{"tram":["T1"]},"num":"3798495","lat":"48.93375423495771","lng":"2.3136158819443446","cp":"92036","type":"tram","routes":[[0,30],[1,5]]},"3798497":{"nom":"Gare de Gennevilliers","isHub":true,"lignes":{"tram":["T1"]},"num":"3798497","lat":"48.933132709126006","lng":"2.3072461782928078","cp":"92036","type":"tram","routes":[[0,31],[1,4]]},"3798498":{"nom":"Timbaud","isHub":false,"lignes":{"tram":["T1"]},"num":"3798498","lat":"48.93349938568873","lng":"2.3008350121717913","cp":"92036","type":"tram","routes":[[0,32]],"isAmbiguous":true},"3798499":{"nom":"Timbaud","isHub":false,"lignes":{"tram":["T1"]},"num":"3798499","lat":"48.932735720625814","lng":"2.3015584759131658","cp":"92036","type":"tram","routes":[[1,3]],"isAmbiguous":true},"3798500":{"nom":"Le Village","isHub":false,"lignes":{"tram":["T1"]},"num":"3798500","lat":"48.93339847895917","lng":"2.2946423865699295","cp":"92036","type":"tram","routes":[[0,33],[1,2]]},"3798502":{"nom":"Le Luth","isHub":false,"lignes":{"tram":["T1"]},"num":"3798502","lat":"48.9317335355189","lng":"2.2884512588242454","cp":"92036","type":"tram","routes":[[0,34],[1,1]]},"3798504":{"nom":"Les Courtilles","isHub":true,"lignes":{"tram":["T1"]},"num":"3798504","lat":"48.93011362688258","lng":"2.283187962763052","cp":"92004","type":"tram","routes":[[0,35],[1,0],[74,0],[75,1]]},"3798510":{"nom":"Gaston Roulaud","isHub":false,"lignes":{"tram":["T1"]},"num":"3798510","lat":"48.91469506566653","lng":"2.4301388749318393","cp":"93008","type":"tram","routes":[[0,10],[1,25]]},"3813310":{"nom":"Porte de Vincennes","isHub":true,"lignes":{"tram":["T3B"]},"num":"3813310","lat":"48.84722392369698","lng":"2.4096869119519257","cp":"75120","type":"tram","routes":[[6,0],[7,17],[108,1],[109,1]],"isAmbiguous":true},"3813312":{"nom":"Porte de Montreuil","isHub":true,"lignes":{"tram":["T3B"]},"num":"3813312","lat":"48.85318193567518","lng":"2.410812007479081","cp":"70 boulevard Davout","type":"tram","routes":[[6,1],[7,16],[122,0],[123,1]],"isAmbiguous":true},"3813314":{"nom":"Mairie de Miribel","isHub":false,"lignes":{"tram":["T3B"]},"num":"3813314","lat":"48.85884463692932","lng":"2.409812107706981","cp":"112 boulevard Davout","type":"tram","routes":[[6,2],[7,15]]},"3813316":{"nom":"Porte de Bagnolet","isHub":true,"lignes":{"tram":["T3B"]},"num":"3813316","lat":"48.86357254303908","lng":"2.408933297088454","cp":"168 boulevard Davout","type":"tram","routes":[[6,3],[7,14],[120,0],[121,1]],"isAmbiguous":true},"3813318":{"nom":"Séverine","isHub":false,"lignes":{"tram":["T3B"]},"num":"3813318","lat":"48.867508893541654","lng":"2.409129460189989","cp":"75120","type":"tram","routes":[[6,4],[7,13]]},"3813320":{"nom":"Adrienne Bolland","isHub":false,"lignes":{"tram":["T3B"]},"num":"3813320","lat":"48.87200276506684","lng":"2.408795086135347","cp":"75120","type":"tram","routes":[[6,5],[7,12]]},"3813323":{"nom":"Hôpital Robert Debré","isHub":true,"lignes":{"tram":["T3B"]},"num":"3813323","lat":"48.879493514270365","lng":"2.4011747961654972","cp":"75119","type":"tram","routes":[[6,7],[7,10],[116,0],[117,1]]},"3813325":{"nom":"Butte du Chapeau Rouge","isHub":false,"lignes":{"tram":["T3B"]},"num":"3813325","lat":"48.885166743390215","lng":"2.396780073937169","cp":"75119","type":"tram","routes":[[6,8],[7,9]]},"3813328":{"nom":"Delphine Seyrig","isHub":false,"lignes":{"tram":["T3B"]},"num":"3813328","lat":"48.894503935889276","lng":"2.3977721634614846","cp":"15 rue Delphine Seyrig","type":"tram","routes":[[6,10],[7,7]]},"3813331":{"nom":"Porte de la Villette - Cité des Sciences","isHub":true,"lignes":{"tram":["T3B"]},"num":"3813331","lat":"48.89769947037563","lng":"2.386721230669195","cp":"75119","type":"tram","routes":[[6,12],[7,5],[112,0],[113,1]]},"3813333":{"nom":"Canal Saint Denis","isHub":false,"lignes":{"tram":["T3B"]},"num":"3813333","lat":"48.8987623733382","lng":"2.380492794030591","cp":"75119","type":"tram","routes":[[6,13],[7,4]]},"3813334":{"nom":"Rosa Parks","isHub":false,"lignes":{"tram":["T3B"]},"num":"3813334","lat":"48.897515796383985","lng":"2.3724904415209136","cp":"75119","type":"tram","routes":[[6,14],[7,3]]},"3813336":{"nom":"Porte d'Aubervilliers","isHub":false,"lignes":{"tram":["T3B"]},"num":"3813336","lat":"48.898775032382886","lng":"2.368783615022626","cp":"3 boulevard Ney","type":"tram","routes":[[6,15],[7,2]]},"3813338":{"nom":"Colette Besson","isHub":false,"lignes":{"tram":["T3B"]},"num":"3813338","lat":"48.89866849236912","lng":"2.3633856115291576","cp":"19 boulevard Ney","type":"tram","routes":[[6,16],[7,1]]},"3813340":{"nom":"Porte de la Chapelle","isHub":true,"lignes":{"tram":["T3B"]},"num":"3813340","lat":"48.898597684757576","lng":"2.3578240709847353","cp":"75118","type":"tram","routes":[[6,17],[7,0],[110,0],[111,1]],"isAmbiguous":true},"3813345":{"nom":"Porte des Lilas","isHub":true,"lignes":{"tram":["T3B"]},"num":"3813345","lat":"48.876821182828934","lng":"2.406730671754107","cp":"168 boulevard Mortier","type":"tram","routes":[[6,6],[7,11],[118,0],[119,1]],"isAmbiguous":true},"3813500":{"nom":"Pont du Garigliano - Htal G. Pompidou","isHub":true,"lignes":{"tram":["T3A"]},"num":"3813500","lat":"48.8379613500494","lng":"2.270962227260772","cp":"75115","type":"tram","routes":[[4,0],[5,24]]},"3813502":{"nom":"Balard","isHub":true,"lignes":{"tram":["T3A"]},"num":"3813502","lat":"48.835718624568095","lng":"2.278929647248125","cp":"75115","type":"tram","routes":[[4,1],[5,23],[88,1],[89,1]],"isAmbiguous":true},"3813504":{"nom":"Desnouettes","isHub":false,"lignes":{"tram":["T3A"]},"num":"3813504","lat":"48.83402248922237","lng":"2.2843227679990963","cp":"75115","type":"tram","routes":[[4,2],[5,22]]},"3813506":{"nom":"Porte de Versailles - Parc des Expositions","isHub":true,"lignes":{"tram":["T3A"]},"num":"3813506","lat":"48.83261302467199","lng":"2.2880271612581975","cp":"75115","type":"tram","show":true,"routes":[[4,3],[5,21],[90,2],[91,0]]},"3813508":{"nom":"Georges Brassens","isHub":false,"lignes":{"tram":["T3A"]},"num":"3813508","lat":"48.82946154305645","lng":"2.296415746251944","cp":"75115","type":"tram","routes":[[4,4],[5,20]]},"3813510":{"nom":"Brancion","isHub":false,"lignes":{"tram":["T3A"]},"num":"3813510","lat":"48.82854619829102","lng":"2.300704479347048","cp":"75115","type":"tram","routes":[[4,5],[5,19]]},"3813512":{"nom":"Porte de Vanves","isHub":true,"lignes":{"tram":["T3A"]},"num":"3813512","lat":"48.827271571354885","lng":"2.306422586810065","cp":"75114","type":"tram","routes":[[4,6],[5,18],[92,0],[93,1]],"isAmbiguous":true},"3813514":{"nom":"Didot","isHub":false,"lignes":{"tram":["T3A"]},"num":"3813514","lat":"48.825727285471544","lng":"2.313338399586871","cp":"75114","type":"tram","routes":[[4,7],[5,17]]},"3813516":{"nom":"Jean Moulin","isHub":false,"lignes":{"tram":["T3A"]},"num":"3813516","lat":"48.82456882109448","lng":"2.3186202708997943","cp":"75114","type":"tram","routes":[[4,8],[5,16]]},"3813518":{"nom":"Porte d'Orléans","isHub":true,"lignes":{"tram":["T3A"]},"num":"3813518","lat":"48.82269139587665","lng":"2.326787666071051","cp":"75114","type":"tram","routes":[[4,9],[5,15],[94,0],[95,1]]},"3813520":{"nom":"Montsouris","isHub":false,"lignes":{"tram":["T3A"]},"num":"3813520","lat":"48.821217828313955","lng":"2.3338928087848245","cp":"75114","type":"tram","routes":[[4,10],[5,14]]},"3813522":{"nom":"Cité Universitaire","isHub":true,"lignes":{"tram":["T3A"]},"num":"3813522","lat":"48.82004946029484","lng":"2.3391601513527824","cp":"75114","type":"tram","routes":[[4,11],[5,13],[126,0],[127,1]],"isAmbiguous":true},"3813524":{"nom":"Stade Charléty - Porte de Gentilly","isHub":false,"lignes":{"tram":["T3A"]},"num":"3813524","lat":"48.81954584551922","lng":"2.3459653212705414","cp":"75113","type":"tram","routes":[[4,12],[5,12]]},"3813526":{"nom":"Poterie des Peupliers","isHub":false,"lignes":{"tram":["T3A"]},"num":"3813526","lat":"48.82094735715549","lng":"2.351790955188557","cp":"65 boulevard Kellermann","type":"tram","routes":[[4,13],[5,11]]},"3813528":{"nom":"Porte d'Italie","isHub":true,"lignes":{"tram":["T3A"]},"num":"3813528","lat":"48.818905790809154","lng":"2.3603784254692677","cp":"75113","type":"tram","routes":[[4,14],[5,10],[96,0],[97,1]],"isAmbiguous":true},"3813530":{"nom":"Porte de Choizy","isHub":true,"lignes":{"tram":["T3A"]},"num":"3813530","lat":"48.81971390717928","lng":"2.364080820209414","cp":"75113","type":"tram","routes":[[4,15],[5,9],[98,0],[99,1]],"isAmbiguous":true},"3813532":{"nom":"Porte d'Ivry","isHub":true,"lignes":{"tram":["T3A"]},"num":"3813532","lat":"48.82167167470405","lng":"2.3702475859019176","cp":"75113","type":"tram","routes":[[4,16],[5,8],[100,0],[101,1]],"isAmbiguous":true},"3813534":{"nom":"Maryse Bastié","isHub":false,"lignes":{"tram":["T3A"]},"num":"3813534","lat":"48.824132010530164","lng":"2.37766746177698","cp":"75113","type":"tram","routes":[[4,17],[5,7]]},"3813536":{"nom":"Avenue de France","isHub":true,"lignes":{"tram":["T3A"]},"num":"3813536","lat":"48.82538909430547","lng":"2.3810305828136284","cp":"75113","type":"tram","routes":[[4,18],[5,6],[102,0],[103,1]]},"3813538":{"nom":"Baron Leroy","isHub":false,"lignes":{"tram":["T3A"]},"num":"3813538","lat":"48.83028208068306","lng":"2.3935860770449033","cp":"75112","type":"tram","routes":[[4,19],[5,5]]},"3813540":{"nom":"Porte de Charenton","isHub":true,"lignes":{"tram":["T3A"]},"num":"3813540","lat":"48.8318435059448","lng":"2.3984886704251625","cp":"75112","type":"tram","routes":[[4,20],[5,4],[104,0],[105,1]],"isAmbiguous":true},"3813542":{"nom":"Porte Dorée","isHub":true,"lignes":{"tram":["T3A"]},"num":"3813542","lat":"48.836053743044054","lng":"2.4074521197954795","cp":"75112","type":"tram","routes":[[4,21],[5,3],[106,0],[107,1]],"isAmbiguous":true},"3813544":{"nom":"Montempoivre","isHub":false,"lignes":{"tram":["T3A"]},"num":"3813544","lat":"48.84114850930293","lng":"2.4094333407071","cp":"75112","type":"tram","routes":[[4,22],[5,2]]},"3813546":{"nom":"Alexandra David-Neel","isHub":false,"lignes":{"tram":["T3A"]},"num":"3813546","lat":"48.84361961611373","lng":"2.4101993140051765","cp":"75112","type":"tram","routes":[[4,23],[5,1]]},"3813548":{"nom":"Porte de Vincennes","isHub":true,"lignes":{"tram":["T3A"]},"num":"3813548","lat":"48.84694530296027","lng":"2.4097001404756484","cp":"75112","type":"tram","routes":[[4,24],[5,0],[108,0],[109,2]],"isAmbiguous":true},"3887738":{"nom":"Porte de Pantin - Parc de la Villette","isHub":true,"lignes":{"tram":["T3B"]},"num":"3887738","lat":"48.88874424503188","lng":"2.3955848701158775","cp":"75119","type":"tram","routes":[[6,9],[7,8],[114,0],[115,1]]},"3887740":{"nom":"Ella Fitzgerald - Grands Moulins de Pantin","isHub":false,"lignes":{"tram":["T3B"]},"num":"3887740","lat":"48.89739105181119","lng":"2.3931819470359255","cp":"18 rue de la Clôture","type":"tram","routes":[[6,11],[7,6]]},"4009351":{"nom":"Pont de Bezons","isHub":false,"lignes":{"tram":["T2"]},"num":"4009351","lat":"48.92332538563844","lng":"2.217311537476802","cp":"95063","type":"tram","routes":[[2,23],[3,0]]},"4009353":{"nom":"Parc Pierre Lagravère","isHub":false,"lignes":{"tram":["T2"]},"num":"4009353","lat":"48.917580644023914","lng":"2.224402000398648","cp":"92025","type":"tram","routes":[[2,22],[3,1]]},"4009355":{"nom":"Victor Basch","isHub":false,"lignes":{"tram":["T2"]},"num":"4009355","lat":"48.91364952675164","lng":"2.2300282302750474","cp":"92025","type":"tram","routes":[[2,21],[3,2]]},"4009357":{"nom":"Jacqueline Auriol","isHub":false,"lignes":{"tram":["T2"]},"num":"4009357","lat":"48.910687372418224","lng":"2.234070123145412","cp":"92025","type":"tram","routes":[[2,20],[3,3]]},"4009359":{"nom":"Charlebourg","isHub":false,"lignes":{"tram":["T2"]},"num":"4009359","lat":"48.907437578853504","lng":"2.238221171763594","cp":"92035","type":"tram","routes":[[2,19],[3,4]]},"4009361":{"nom":"Les Fauvelles","isHub":false,"lignes":{"tram":["T2"]},"num":"4009361","lat":"48.90243265936361","lng":"2.239294045593773","cp":"92035","type":"tram","routes":[[2,18],[3,5]]},"4009363":{"nom":"Faubourg de l'Arche","isHub":false,"lignes":{"tram":["T2"]},"num":"4009363","lat":"48.89680729800427","lng":"2.239999843794393","cp":"92026","type":"tram","routes":[[2,17],[3,6]]},"4009365":{"nom":"La Défense","isHub":true,"lignes":{"tram":["T2"]},"num":"4009365","lat":"48.891933227628904","lng":"2.2363563116843697","cp":"92062","type":"tram","routes":[[2,16],[3,7],[82,0],[83,2]]},"4009367":{"nom":"Puteaux","isHub":false,"lignes":{"tram":["T2"]},"num":"4009367","lat":"48.88319478619906","lng":"2.23302105413707","cp":"92062","type":"tram","routes":[[2,15],[3,8]]},"4009369":{"nom":"Belvédère","isHub":false,"lignes":{"tram":["T2"]},"num":"4009369","lat":"48.87656474687617","lng":"2.225921947019245","cp":"92073","type":"tram","routes":[[2,14],[3,9]]},"4009371":{"nom":"Suresnes Longchamp","isHub":false,"lignes":{"tram":["T2"]},"num":"4009371","lat":"48.867914550913504","lng":"2.221322293381193","cp":"92073","type":"tram","routes":[[2,13],[3,10]]},"4009373":{"nom":"Les Coteaux","isHub":false,"lignes":{"tram":["T2"]},"num":"4009373","lat":"48.85677813384896","lng":"2.220271193724712","cp":"92064","type":"tram","routes":[[2,12],[3,11]]},"4009375":{"nom":"Les Milons","isHub":false,"lignes":{"tram":["T2"]},"num":"4009375","lat":"48.84996639599762","lng":"2.221049184774347","cp":"92064","type":"tram","routes":[[2,11],[3,12]]},"4009377":{"nom":"Parc de Saint Cloud","isHub":true,"lignes":{"tram":["T2"]},"num":"4009377","lat":"48.842893832085416","lng":"2.221677770048452","cp":"92064","type":"tram","routes":[[2,10],[3,13],[84,0],[85,1]]},"4009379":{"nom":"Musée de Sèvres","isHub":true,"lignes":{"tram":["T2"]},"num":"4009379","lat":"48.82875968379714","lng":"2.225166902460968","cp":"92072","type":"tram","routes":[[2,9],[3,14],[86,0],[87,1]]},"4009381":{"nom":"Brimborion","isHub":false,"lignes":{"tram":["T2"]},"num":"4009381","lat":"48.82212346845211","lng":"2.231360658178168","cp":"92048","type":"tram","routes":[[2,8],[3,15]]},"4009382":{"nom":"Meudon-sur-Seine","isHub":false,"lignes":{"tram":["T2"]},"num":"4009382","lat":"48.81918273787022","lng":"2.239832259955797","cp":"92048","type":"tram","routes":[[2,7],[3,16]]},"4009384":{"nom":"Les Moulineaux","isHub":false,"lignes":{"tram":["T2"]},"num":"4009384","lat":"48.82147452777927","lng":"2.251410827016059","cp":"Jacques Rousseau","type":"tram","routes":[[2,6],[3,17]]},"4009386":{"nom":"Jacques-Henri Lartigue","isHub":false,"lignes":{"tram":["T2"]},"num":"4009386","lat":"48.823780687960216","lng":"2.2591247300436366","cp":"Henri Lartigue","type":"tram","routes":[[2,5],[3,18]]},"4009388":{"nom":"Issy - Val de Seine","isHub":true,"lignes":{"tram":["T2"]},"num":"4009388","lat":"48.82910364550732","lng":"2.2626560674016605","cp":"92040","type":"tram","routes":[[2,4],[3,19]]},"4009390":{"nom":"Henri Farman","isHub":false,"lignes":{"tram":["T2"]},"num":"4009390","lat":"48.834870507352896","lng":"2.2725726754613715","cp":"75115","type":"tram","routes":[[2,3],[3,20]]},"4009392":{"nom":"Suzanne Lenglen","isHub":true,"lignes":{"tram":["T2"]},"num":"4009392","lat":"48.833551236507404","lng":"2.2761820444621668","cp":"75115","type":"tram","routes":[[2,2],[3,21],[88,0],[89,2]]},"4009394":{"nom":"Porte d'Issy","isHub":false,"lignes":{"tram":["T2"]},"num":"4009394","lat":"48.83169317046552","lng":"2.280989820289652","cp":"sur","type":"tram","routes":[[2,1],[3,22]]},"4009396":{"nom":"Porte de Versailles","isHub":true,"lignes":{"tram":["T2"]},"num":"4009396","lat":"48.83220830468481","lng":"2.2873604738640747","cp":"75115","type":"tram","routes":[[2,0],[3,23],[90,0],[91,2]],"isAmbiguous":true},"4028973":{"nom":"Mairie de Montrouge","isHub":false,"lignes":{"metro":["4"]},"num":"4028973","lat":"48.81846633711334","lng":"2.319643218617825","cp":"92049","type":"metro","routes":[[16,26],[17,0]]},"A_1670":{"nom":"Saint-Germain-en-Laye","isHub":false,"lignes":{"rer":["A"]},"num":"A_1670","lat":"48.89830860836054","lng":"2.09511210577148","cp":"78551","type":"rer","routes":[[52,7],[53,0]]},"A_1671":{"nom":"Saint-Maur Créteil","isHub":false,"lignes":{"rer":["A"]},"num":"A_1671","lat":"48.80641960896216","lng":"2.47204505094563","cp":"94068","type":"rer","routes":[[50,4],[51,5]]},"A_1894":{"nom":"Houilles Carrières-sur-Seine","isHub":false,"lignes":{"rer":["A"]},"num":"A_1894","lat":"48.920645595306866","lng":"2.1844117553489246","cp":"78311","type":"rer","routes":[[48,8],[49,19]]},"A_2053":{"nom":"Auber","isHub":true,"lignes":{"rer":["A"]},"num":"A_2053","lat":"48.87260817994105","lng":"2.3297068164482293","cp":"75109","type":"rer","routes":[[48,12],[49,15],[66,1],[67,1]]},"A_1652":{"nom":"Noisy-le-Grand (Mont d'Est)","isHub":false,"lignes":{"rer":["A"]},"num":"A_1652","lat":"48.84079514562774","lng":"2.548002629723796","cp":"93051","type":"rer","routes":[[48,20],[49,7]]},"A_1835":{"nom":"Nation","isHub":true,"lignes":{"rer":["A"]},"num":"A_1835","lat":"48.8484803444062","lng":"2.39676520957729","cp":"plein face au 3 place de la)","type":"rer","show":false,"routes":[[48,15],[49,12],[68,1],[69,0]],"isAmbiguous":true},"A_1837":{"nom":"Neuilly-Plaisance","isHub":false,"lignes":{"rer":["A"]},"num":"A_1837","lat":"48.853415709406356","lng":"2.5135425883128466","cp":"93049","type":"rer","routes":[[48,18],[49,9]]},"A_1830":{"nom":"Nanterre-Université","isHub":false,"lignes":{"rer":["A"]},"num":"A_1830","lat":"48.90145806746532","lng":"2.215467319236829","cp":"92050","type":"rer","routes":[[52,1],[53,6]]},"A_1831":{"nom":"Nanterre-Ville","isHub":false,"lignes":{"rer":["A"]},"num":"A_1831","lat":"48.89532514729429","lng":"2.1958404738707524","cp":"92050","type":"rer","routes":[[52,2],[53,5]]},"A_1636":{"nom":"Torcy","isHub":false,"lignes":{"rer":["A"]},"num":"A_1636","lat":"48.83972842272958","lng":"2.655903115145281","cp":"77468","type":"rer","routes":[[48,24],[49,3]]},"A_1838":{"nom":"Nogent-sur-Marne","isHub":false,"lignes":{"rer":["A"]},"num":"A_1838","lat":"48.83510877417377","lng":"2.4716839161590887","cp":"94052","type":"rer","routes":[[50,2],[51,7]]},"A_1839":{"nom":"Noisiel","isHub":false,"lignes":{"rer":["A"]},"num":"A_1839","lat":"48.84348503430221","lng":"2.616614613852153","cp":"Paul Sartre (allée centre quartier du Luzard)","type":"rer","routes":[[48,22],[49,5]]},"A_1713":{"nom":"Rueil-Malmaison","isHub":false,"lignes":{"rer":["A"]},"num":"A_1713","lat":"48.88722206053287","lng":"2.170623204930391","cp":"92063","type":"rer","routes":[[52,3],[53,4]]},"A_1631":{"nom":"Vincennes","isHub":true,"lignes":{"rer":["A"]},"num":"A_1631","lat":"48.84732387116057","lng":"2.433531596877892","cp":"94080","type":"rer","routes":[[48,16],[49,11],[50,0],[51,9]]},"A_2039":{"nom":"Achères-Ville","isHub":false,"lignes":{"rer":["A"]},"num":"A_2039","lat":"48.970077176304514","lng":"2.0776181820083806","cp":"78005","type":"rer","routes":[[48,5],[49,22]]},"A_2074":{"nom":"Boissy-Saint-Léger","isHub":false,"lignes":{"rer":["A"]},"num":"A_2074","lat":"48.752988644666615","lng":"2.5052228459567494","cp":"94004","type":"rer","routes":[[50,9],[51,0]]},"A_1850":{"nom":"Le Vésinet-Centre","isHub":false,"lignes":{"rer":["A"]},"num":"A_1850","lat":"48.89009570633796","lng":"2.1343746143232596","cp":"78650","type":"rer","routes":[[52,5],[53,2]]},"A_1851":{"nom":"Le Vésinet-Le Pecq","isHub":false,"lignes":{"rer":["A"]},"num":"A_1851","lat":"48.89835089406469","lng":"2.121828925443024","cp":"78650","type":"rer","routes":[[52,6],[53,1]]},"A_1878":{"nom":"Maisons-Laffitte","isHub":true,"lignes":{"rer":["A"]},"num":"A_1878","lat":"48.94604723230418","lng":"2.144251676642267","cp":"78358","type":"rer","routes":[[48,6],[49,21],[54,0],[55,2]]},"A_1970":{"nom":"Chatou-Croissy","isHub":false,"lignes":{"rer":["A"]},"num":"A_1970","lat":"48.885142071685785","lng":"2.155625867018615","cp":"78146","type":"rer","routes":[[52,4],[53,3]]},"A_1913":{"nom":"La Défense (Grande Arche)","isHub":true,"lignes":{"rer":["A"]},"num":"A_1913","lat":"48.89200565400341","lng":"2.2369831238174327","cp":"92062","type":"rer","show":false,"routes":[[48,10],[49,17],[82,2],[83,0]],"isAmbiguous":true},"A_1859":{"nom":"Lognes","isHub":false,"lignes":{"rer":["A"]},"num":"A_1859","lat":"48.838922336696","lng":"2.633949874255556","cp":"77258","type":"rer","routes":[[48,23],[49,4]]},"A_2084":{"nom":"Charles de Gaulle-Etoile","isHub":true,"lignes":{"rer":["A"]},"num":"A_2084","lat":"48.87416474488983","lng":"2.29507256293689","cp":"75117","type":"rer","routes":[[48,11],[49,16],[64,1],[65,0]],"isAmbiguous":true},"A_2771311":{"nom":"Acheres Grand Cormier","isHub":false,"lignes":{"rer":["A"]},"num":"A_2771311","lat":"48.95518178055726","lng":"2.0925262190765865","cp":"78005","type":"rer","routes":[[54,1],[55,1]]},"A_1919":{"nom":"La Varenne-Chennevières","isHub":false,"lignes":{"rer":["A"]},"num":"A_1919","lat":"48.7949153076683","lng":"2.5132215474075674","cp":"94068","type":"rer","routes":[[50,7],[51,2]]},"A_1885":{"nom":"Marne-la-Vallée Chessy","isHub":true,"lignes":{"rer":["A"]},"num":"A_1885","lat":"48.871173167841604","lng":"2.7828140416090412","cp":"dit Le Galmy","type":"rer","routes":[[48,27],[49,0]]},"A_1643":{"nom":"Sartrouville","isHub":false,"lignes":{"rer":["A"]},"num":"A_1643","lat":"48.93751218318358","lng":"2.157311047020583","cp":"78586","type":"rer","routes":[[48,7],[49,20]]},"A_1943":{"nom":"Fontenay-sous-Bois","isHub":false,"lignes":{"rer":["A"]},"num":"A_1943","lat":"48.8434118592224","lng":"2.464815403274336","cp":"94033","type":"rer","routes":[[50,1],[51,8]]},"A_161468":{"nom":"Val d'europe","isHub":false,"lignes":{"rer":["A"]},"num":"A_161468","lat":"48.855087772415835","lng":"2.774926121592525","cp":"77449","type":"rer","routes":[[48,26],[49,1]]},"A_1829":{"nom":"Nanterre-Préfecture","isHub":true,"lignes":{"rer":["A"]},"num":"A_1829","lat":"48.89565993203451","lng":"2.2231003280556174","cp":"92050","type":"rer","routes":[[48,9],[49,18],[52,0],[53,7]]},"A_1983":{"nom":"Conflans-Fin d'Oise","isHub":false,"lignes":{"rer":["A"]},"num":"A_1983","lat":"48.99071051507488","lng":"2.073609141668205","cp":"78172","type":"rer","routes":[[48,4],[49,23]]},"A_48433":{"nom":"Neuville-Université","isHub":false,"lignes":{"rer":["A"]},"num":"A_48433","lat":"49.014337292933675","lng":"2.0784342019585837","cp":"Universite","type":"rer","routes":[[48,3],[49,24]]},"A_1904":{"nom":"Joinville-le-Pont","isHub":false,"lignes":{"rer":["A"]},"num":"A_1904","lat":"48.821069678359656","lng":"2.4638349563053548","cp":"94042","type":"rer","routes":[[50,3],[51,6]]},"A_1840":{"nom":"Noisy-Champs","isHub":false,"lignes":{"rer":["A"]},"num":"A_1840","lat":"48.8426611070816","lng":"2.578252451182644","cp":"93051","type":"rer","routes":[[48,21],[49,6]]},"A_1689":{"nom":"Val de Fontenay","isHub":false,"lignes":{"rer":["A"]},"num":"A_1689","lat":"48.853539865493715","lng":"2.4886196422410003","cp":"94033","type":"rer","routes":[[48,17],[49,10]]},"A_2012":{"nom":"Bussy-Saint-Georges","isHub":false,"lignes":{"rer":["A"]},"num":"A_2012","lat":"48.8370461919234","lng":"2.7098841280452173","cp":"77058","type":"rer","routes":[[48,25],[49,2]]},"A_1801":{"nom":"Poissy","isHub":false,"lignes":{"rer":["A"]},"num":"A_1801","lat":"48.933164262405","lng":"2.041083510970564","cp":"78498","type":"rer","routes":[[54,2],[55,0]]},"A_2021":{"nom":"Cergy-Préfecture","isHub":false,"lignes":{"rer":["A"]},"num":"A_2021","lat":"49.03594383494343","lng":"2.0801437572429307","cp":"95127","type":"rer","routes":[[48,2],[49,25]]},"A_1848":{"nom":"Le Parc de Saint-Maur","isHub":false,"lignes":{"rer":["A"]},"num":"A_1848","lat":"48.80515416622947","lng":"2.4856075719006507","cp":"94068","type":"rer","routes":[[50,5],[51,4]]},"A_2024":{"nom":"Champigny","isHub":false,"lignes":{"rer":["A"]},"num":"A_2024","lat":"48.80703580209233","lng":"2.509901668386353","cp":"94068","type":"rer","routes":[[50,6],[51,3]]},"A_1680":{"nom":"Sucy Bonneuil","isHub":false,"lignes":{"rer":["A"]},"num":"A_1680","lat":"48.77105153303763","lng":"2.507511268345535","cp":"94071","type":"rer","routes":[[50,8],[51,1]]},"A_2022":{"nom":"Cergy-Saint-Christophe","isHub":false,"lignes":{"rer":["A"]},"num":"A_2022","lat":"49.04954211817629","lng":"2.0350436480345913","cp":"95127","type":"rer","routes":[[48,1],[49,26]]},"A_2010":{"nom":"Bry-sur-Marne","isHub":false,"lignes":{"rer":["A"]},"num":"A_2010","lat":"48.8445340667769","lng":"2.5265438463007914","cp":"94015","type":"rer","routes":[[48,19],[49,8]]},"A_48429":{"nom":"Cergy-Le-Haut","isHub":false,"lignes":{"rer":["A"]},"num":"A_48429","lat":"49.048547258734644","lng":"2.0120551690790514","cp":"Le","type":"rer","routes":[[48,0],[49,27]]},"B_1650":{"nom":"Port Royal","isHub":false,"lignes":{"rer":["B"]},"num":"B_1650","lat":"48.83988516597736","lng":"2.336873440890153","cp":"75105","type":"rer","routes":[[56,24],[57,24],[58,10],[59,10],[60,15],[61,15],[62,14],[63,14]]},"B_1771":{"nom":"Orsay-Ville","isHub":false,"lignes":{"rer":["B"]},"num":"B_1771","lat":"48.69760164693814","lng":"2.182079748545582","cp":"91471","type":"rer","routes":[[56,5],[57,5],[60,34],[62,33]]},"B_1776":{"nom":"Palaiseau Villebon","isHub":false,"lignes":{"rer":["B"]},"num":"B_1776","lat":"48.707745883014454","lng":"2.237039533120401","cp":"91477","type":"rer","routes":[[56,8],[57,8],[60,31],[62,30]]},"B_1777":{"nom":"Parc des Expositions","isHub":false,"lignes":{"rer":["B"]},"num":"B_1777","lat":"48.97374124286838","lng":"2.5147988854756136","cp":"93078","type":"rer","routes":[[56,37],[58,23],[60,2],[61,2]]},"B_1775":{"nom":"Palaiseau","isHub":false,"lignes":{"rer":["B"]},"num":"B_1775","lat":"48.71791943671647","lng":"2.246501416326464","cp":"91477","type":"rer","routes":[[56,9],[57,9],[60,30],[62,29]]},"B_1673":{"nom":"Saint-Rémy-lès-Chevreuse","isHub":false,"lignes":{"rer":["B"]},"num":"B_1673","lat":"48.70286868424979","lng":"2.070600214521146","cp":"78575","type":"rer","routes":[[56,0],[57,0],[60,39],[62,38]]},"B_1672":{"nom":"Saint-Michel Notre-Dame","isHub":true,"lignes":{"rer":["B"]},"num":"B_1672","lat":"48.85339313419855","lng":"2.345017658598223","cp":"Germain (boulevard côté pair)","type":"rer","routes":[[56,26],[57,26],[58,12],[59,12],[60,13],[61,13],[62,12],[63,12],[72,1],[73,1]]},"B_1778":{"nom":"Parc de Sceaux","isHub":false,"lignes":{"rer":["B"]},"num":"B_1778","lat":"48.77062199581033","lng":"2.3098419965156434","cp":"92002","type":"rer","routes":[[56,16],[57,16],[60,23],[62,22]]},"B_1999":{"nom":"Drancy","isHub":false,"lignes":{"rer":["B"]},"num":"B_1999","lat":"48.932709809148555","lng":"2.455105345174671","cp":"93029","type":"rer","routes":[[56,32],[57,32],[58,18],[59,18],[60,7],[61,7],[62,6],[63,6]]},"B_2078":{"nom":"Gif-sur-Yvette","isHub":false,"lignes":{"rer":["B"]},"num":"B_2078","lat":"48.69842449558706","lng":"2.1372675003239285","cp":"91272","type":"rer","routes":[[56,2],[57,2],[60,37],[62,36]]},"B_1853":{"nom":"Les Baconnets","isHub":false,"lignes":{"rer":["B"]},"num":"B_1853","lat":"48.739380928058495","lng":"2.2875990476951404","cp":"92002","type":"rer","routes":[[56,12],[57,12],[60,27],[62,26]]},"B_2059":{"nom":"Bagneux","isHub":false,"lignes":{"rer":["B"]},"num":"B_2059","lat":"48.79325579634385","lng":"2.321324996317998","cp":"94016","type":"rer","routes":[[56,18],[57,18],[58,4],[59,4],[60,21],[61,21],[62,20],[63,20]]},"B_2011":{"nom":"Bures-sur-Yvette","isHub":false,"lignes":{"rer":["B"]},"num":"B_2011","lat":"48.6957326504055","lng":"2.163089675156206","cp":"91122","type":"rer","routes":[[56,4],[57,4],[60,35],[62,34]]},"B_2077":{"nom":"Gare du Nord","isHub":true,"lignes":{"rer":["B"]},"num":"B_2077","lat":"48.880839205836494","lng":"2.3565770153513177","cp":"Denis)","type":"rer","routes":[[56,28],[57,28],[58,14],[59,14],[60,11],[61,11],[62,10],[63,10],[128,1],[129,0]],"isAmbiguous":true},"B_2070":{"nom":"Blanc-Mesnil","isHub":false,"lignes":{"rer":["B"]},"num":"B_2070","lat":"48.93220116999761","lng":"2.4767508712199087","cp":"93007","type":"rer","routes":[[56,33],[57,33],[58,19],[59,19],[60,6],[61,6],[62,5],[63,5]]},"B_1960":{"nom":"Gentilly","isHub":false,"lignes":{"rer":["B"]},"num":"B_1960","lat":"48.81574430585205","lng":"2.3408747750262417","cp":"94037","type":"rer","routes":[[56,21],[57,21],[58,7],[59,7],[60,18],[61,18],[62,17],[63,17]]},"B_2056":{"nom":"Aulnay-sous-Bois","isHub":true,"lignes":{"rer":["B"]},"num":"B_2056","lat":"48.93210876263909","lng":"2.493309562581326","cp":"93005","type":"rer","routes":[[56,34],[57,34],[58,20],[59,20],[60,5],[61,5],[62,4],[63,4]]},"B_2054":{"nom":"La Courneuve-Aubervilliers","isHub":false,"lignes":{"rer":["B"]},"num":"B_2054","lat":"48.924023434909344","lng":"2.3844006646895615","cp":"93001","type":"rer","routes":[[56,30],[57,30],[58,16],[59,16],[60,9],[61,9],[62,8],[63,8]]},"B_1697":{"nom":"Villeparisis","isHub":false,"lignes":{"rer":["B"]},"num":"B_1697","lat":"48.95300013565804","lng":"2.60203177755109","cp":"77514","type":"rer","routes":[[57,37],[59,23],[62,1],[63,1]]},"B_1693":{"nom":"Vert-Galant","isHub":false,"lignes":{"rer":["B"]},